1

ArduCopter V3.1.2 ()
Free RAM: 1282
APM 2
FMT, 128, 89, FMT, BBnNZ, Type,Length,Name,Format
FMT, 129, 23, PARM, Nf, Name,Value
FMT, 130, 45, GPS, BIHBcLLeeEefI, Status,TimeMS,Week,NSats,HDop,Lat,Lng,RelAlt,Alt,Spd,GCrs,VZ,T
FMT, 131, 31, IMU, Iffffff, TimeMS,GyrX,GyrY,GyrZ,AccX,AccY,AccZ
FMT, 135, 31, IMU2, Iffffff, TimeMS,GyrX,GyrY,GyrZ,AccX,AccY,AccZ
FMT, 132, 67, MSG, Z, Message
FMT, 133, 23, RCIN, Ihhhhhhhh, TimeMS,Chan1,Chan2,Chan3,Chan4,Chan5,Chan6,Chan7,Chan8
FMT, 134, 23, RCOU, Ihhhhhhhh, TimeMS,Chan1,Chan2,Chan3,Chan4,Chan5,Chan6,Chan7,Chan8
FMT, 136, 17, BARO, Iffc, TimeMS,Alt,Press,Temp
FMT, 25, 25, ATUN, BBfffff, Axis,TuneStep,RateMin,RateMax,RPGain,RDGain,SPGain
FMT, 26, 9, ATDE, cf, Angle,Rate
FMT, 9, 23, CURR, IhIhhhf, TimeMS,ThrOut,ThrInt,Volt,Curr,Vcc,CurrTot
FMT, 12, 20, OF, hhBccee, Dx,Dy,SQual,X,Y,Roll,Pitch
FMT, 5, 47, NTUN, Iffffffffff, TimeMS,DPosX,DPosY,PosX,PosY,DVelX,DVelY,VelX,VelY,DAccX,DAccY
FMT, 4, 33, CTUN, Ihhhffecchh, TimeMS,ThrIn,AngBst,ThrOut,DAlt,Alt,BarAlt,DSAlt,SAlt,DCRt,CRt
FMT, 15, 25, MAG, Ihhhhhhhhh, TimeMS,MagX,MagY,MagZ,OfsX,OfsY,OfsZ,MOfsX,MOfsY,MOfsZ
FMT, 27, 25, MAG2, Ihhhhhhhhh, TimeMS,MagX,MagY,MagZ,OfsX,OfsY,OfsZ,MOfsX,MOfsY,MOfsZ
FMT, 6, 19, PM, BBHHIhBHB, RenCnt,RenBlw,NLon,NLoop,MaxT,PMT,I2CErr,INSErr,INAVErr
FMT, 8, 20, CMD, BBBBBeLL, CTot,CNum,CId,COpt,Prm1,Alt,Lat,Lng
FMT, 1, 19, ATT, IccccCC, TimeMS,DesRoll,Roll,DesPitch,Pitch,DesYaw,Yaw
FMT, 3, 6, MODE, Mh, Mode,ThrCrs
FMT, 10, 3, STRT, , 
FMT, 13, 4, EV, B, Id
FMT, 20, 6, D16, Bh, Id,Value
FMT, 21, 6, DU16, BH, Id,Value
FMT, 22, 8, D32, Bi, Id,Value
FMT, 23, 8, DU32, BI, Id,Value
FMT, 24, 8, DFLT, Bf, Id,Value
FMT, 18, 27, CAM, IHLLeccC, GPSTime,GPSWeek,Lat,Lng,Alt,Roll,Pitch,Yaw
FMT, 19, 5, ERR, BB, Subsys,ECode
MSG, ArduCopter V3.1.2 ()
MODE, STABILIZE, 535
D32, 9, 17481
CMD, 1, 0, 16, 0, 0, 0.00, 35.7712490, -78.6745718
EV, 10
CTUN, 148061, 0, 0, 0, 0.000000, 2.330000, -0.10, 0.00, 0.00, 0, 2
IMU, 148064, 0.000569, 0.001298, -0.000292, 0.198571, -0.240564, -9.741899
GPS, 3, 484713800, 1785, 5, 3.41, 35.7712488, -78.6745722, 2.33, 127.19, 0.06, 240.18, 0.090000, 148073
ATT, 148081, 0.00, 0.32, 0.00, 0.26, 174.81, 174.81
RCIN, 148081, 1529, 1520, 1139, 1921, 1121, 1500, 1115, 1500
RCOU, 148082, 1197, 1197, 1197, 1197, 1197, 1197, 32767, 32767
IMU, 148082, -0.000494, -0.000830, 0.000239, 0.199763, -0.239364, -9.708902
IMU, 148098, -0.000494, 0.000234, 0.000239, 0.187844, -0.250158, -9.717152
IMU, 148117, 0.000037, -0.000297, -0.000292, 0.190228, -0.239364, -9.706545
IMU, 148137, -0.000494, -0.000297, 0.000239, 0.194996, -0.244162, -9.728935
CTUN, 148156, 0, 0, 0, 0.000000, 2.340000, -0.21, 0.00, 0.00, 0, 2
IMU, 148159, 0.000569, -0.000297, 0.000239, 0.183076, -0.257354, -9.728935
ATT, 148176, 0.00, 0.33, 0.00, 0.29, 174.81, 174.81
RCIN, 148176, 1529, 1520, 1141, 1920, 1122, 1500, 1115, 1500
RCOU, 148177, 1197, 1197, 1197, 1197, 1197, 1197, 32767, 32767
IMU, 148177, 0.000037, -0.000297, 0.000239, 0.191420, -0.238165, -9.720686
IMU, 148198, -0.000494, -0.000297, 0.000239, 0.173540, -0.246560, -9.717152
IMU, 148216, 0.000569, 0.000234, 0.000239, 0.169964, -0.257354, -9.714794
IMU, 148236, 0.000037, -0.000830, 0.000239, 0.177116, -0.245361, -9.736007
CTUN, 148256, 0, 0, 0, 0.000000, 2.200000, -0.08, 0.00, 0.00, 0, 0
IMU, 148258, 0.000037, 0.000766, -0.000292, 0.175924, -0.227371, -9.733649
GPS, 3, 484713800, 1785, 5, 3.41, 35.7712476, -78.6745745, 2.17, 126.80, 0.01, 240.18, 0.030000, 148266
ATT, 148276, 0.00, 0.33, 0.00, 0.30, 174.81, 174.81
RCIN, 148277, 1529, 1520, 1141, 1920, 1122, 1500, 1115, 1500
RCOU, 148277, 1197, 1197, 1197, 1197, 1197, 1197, 32767, 32767
IMU, 148277, 0.000037, 0.001298, -0.000292, 0.183076, -0.242962, -9.728935
IMU, 148296, 0.000569, 0.000234, 0.000239, 0.184268, -0.242962, -9.713616
IMU, 148317, -0.000494, 0.000766, -0.000292, 0.171156, -0.247759, -9.728935
IMU, 148337, 0.000037, -0.000297, 0.000239, 0.199763, -0.246560, -9.717152
CTUN, 148357, 0, 0, 0, 0.000000, 2.060000, -0.17, 0.00, 0.00, 0, -2
IMU, 148359, 0.000569, -0.000297, 0.000239, 0.199763, -0.229770, -9.730114
ATT, 148377, 0.00, 0.34, 0.00, 0.32, 174.80, 174.80
RCIN, 148377, 1529, 1520, 1141, 1921, 1121, 1500, 1114, 1500
RCOU, 148377, 1197, 1197, 1197, 1197, 1197, 1197, 32767, 32767
IMU, 148378, -0.000494, 0.000766, 0.000239, 0.186652, -0.245361, -9.720686
IMU, 148399, 0.000569, 0.000766, -0.000292, 0.203339, -0.241763, -9.751327
IMU, 148417, -0.000494, 0.000766, 0.000239, 0.185460, -0.253756, -9.737185
IMU, 148437, -0.000494, 0.000766, 0.000239, 0.190228, -0.240564, -9.719508
CTUN, 148457, 0, 0, 0, 0.000000, 1.920000, -0.19, 0.00, 0.00, 0, -5
IMU, 148460, 0.000569, 0.000234, 0.000771, 0.206915, -0.245361, -9.721866
GPS, 3, 484715600, 1785, 5, 3.41, 35.7712476, -78.6745747, 1.89, 126.75, 0.03, 240.18, 0.050000, 148467
ATT, 148477, 0.00, 0.34, 0.00, 0.33, 174.80, 174.80
RCIN, 148477, 1529, 1520, 1141, 1920, 1122, 1500, 1115, 1500
RCOU, 148477, 1197, 1197, 1197, 1197, 1197, 1197, 32767, 32767
IMU, 148478, -0.000494, 0.000234, 0.001303, 0.204531, -0.241763, -9.740721
IMU, 148497, -0.000494, 0.000234, 0.000239, 0.189036, -0.229770, -9.739541
IMU, 148517, -0.000494, 0.000766, -0.000292, 0.211683, -0.248959, -9.715973
IMU, 148536, -0.000494, 0.000766, 0.000239, 0.204531, -0.242962, -9.715973
CTUN, 148557, 0, 0, 0, 0.000000, 1.790000, -0.23, 0.00, 0.00, 0, -8
IMU, 148558, -0.001026, -0.000297, 0.000239, 0.194996, -0.227371, -9.737185
ATT, 148577, 0.00, 0.34, 0.00, 0.35, 174.80, 174.80
RCIN, 148578, 1529, 1520, 1141, 1920, 1122, 1500, 1115, 1500
RCOU, 148578, 1197, 1197, 1197, 1197, 1197, 1197, 32767, 32767
IMU, 148578, -0.000494, 0.001830, 0.001303, 0.187844, -0.247759, -9.720686
IMU, 148599, -0.000494, -0.000297, 0.000239, 0.181884, -0.247759, -9.731293
IMU, 148617, -0.000494, -0.000297, 0.000239, 0.210491, -0.238165, -9.731293
IMU, 148638, -0.001026, -0.000297, 0.000239, 0.203339, -0.248959, -9.724222
CTUN, 148657, 0, 0, 0, 0.000000, 1.660000, -0.12, 0.00, 0.00, 0, -10
IMU, 148660, -0.001026, 0.000766, 0.000239, 0.200955, -0.256155, -9.715973
GPS, 3, 484715800, 1785, 5, 3.41, 35.7712476, -78.6745748, 1.63, 126.74, 0.02, 240.18, 0.030000, 148667
ATT, 148677, 0.00, 0.34, 0.00, 0.37, 174.80, 174.80
RCIN, 148677, 1517, 1520, 1141, 1920, 1122, 1500, 1114, 1500
RCOU, 148677, 1197, 1197, 1197, 1197, 1197, 1197, 32767, 32767
IMU, 148677, 0.000037, -0.000297, -0.000824, 0.200955, -0.242962, -9.743077
IMU, 148698, -0.000494, -0.000297, 0.000239, 0.193804, -0.244162, -9.728935
IMU, 148717, 0.001101, -0.000830, -0.000824, 0.178308, -0.250158, -9.715973
IMU, 148737, 0.000569, -0.000297, 0.000239, 0.191420, -0.250158, -9.724222
CTUN, 148757, 0, 0, 0, 0.000000, 1.530000, -0.19, 0.00, 0.00, 0, -13
IMU, 148760, -0.000494, -0.001362, -0.000824, 0.173540, -0.240564, -9.747790
ATT, 148778, 0.00, 0.34, 0.00, 0.38, 174.79, 174.79
RCIN, 148778, 1529, 1520, 1141, 1920, 1122, 1500, 1115, 1500
RCOU, 148778, 1197, 1197, 1197, 1197, 1197, 1197, 32767, 32767
IMU, 148778, -0.000494, 0.000234, -0.000824, 0.190228, -0.240564, -9.741899
IMU, 148798, 0.002165, 0.000766, 0.000239, 0.192612, -0.250158, -9.734828
IMU, 148817, 0.000037, -0.000297, 0.000239, 0.175924, -0.240564, -9.737185
IMU, 148838, 0.000569, 0.000766, 0.000239, 0.198571, -0.251357, -9.727757
DU32, 7, 303705
CURR, 148848, 0, 0, 1321, 0, 5051, 0.000000
CTUN, 148857, 0, 0, 0, 0.000000, 1.420000, -0.31, 0.00, 0.00, 0, -15
IMU, 148860, 0.000569, -0.000297, 0.000239, 0.190228, -0.245361, -9.743077
GPS, 3, 484716000, 1785, 5, 3.41, 35.7712475, -78.6745751, 1.39, 126.69, 0.03, 240.18, 0.040000, 148867
ATT, 148877, 0.00, 0.35, 0.00, 0.39, 174.79, 174.79
RCIN, 148877, 1529, 1520, 1141, 1920, 1122, 1500, 1115, 1500
RCOU, 148877, 1197, 1197, 1197, 1197, 1197, 1197, 32767, 32767
IMU, 148878, 0.000569, -0.000297, -0.000292, 0.186652, -0.235766, -9.740721
IMU, 148898, 0.000569, 0.000234, -0.000292, 0.189036, -0.235766, -9.721866
IMU, 148918, 0.000569, -0.000297, 0.000239, 0.179500, -0.260952, -9.726580
IMU, 148937, -0.000494, -0.001362, 0.000239, 0.167580, -0.260952, -9.721866
CTUN, 148957, 0, 0, 0, 0.000000, 1.290000, -0.12, 0.00, 0.00, 0, -17
IMU, 148960, -0.000494, 0.001298, 0.000239, 0.197380, -0.246560, -9.713616
ATT, 148977, 0.00, 0.35, 0.00, 0.41, 174.79, 174.79
RCIN, 148977, 1530, 1520, 1141, 1920, 1122, 1500, 1115, 1500
RCOU, 148978, 1197, 1197, 1197, 1197, 1197, 1197, 32767, 32767
IMU, 148978, 0.000569, -0.000297, -0.000292, 0.199763, -0.253756, -9.730114
IMU, 149000, 0.000037, 0.001298, 0.000239, 0.193804, -0.251357, -9.732471
IMU, 149018, -0.000494, -0.000297, -0.000824, 0.197380, -0.239364, -9.724222
IMU, 149037, -0.001026, -0.000830, 0.000771, 0.177116, -0.250158, -9.725400
CTUN, 149057, 0, 0, 0, 0.000000, 1.190000, -0.16, 0.00, 0.00, 0, -19
IMU, 149060, -0.000494, -0.000297, 0.000239, 0.189036, -0.239364, -9.720686
GPS, 3, 484716200, 1785, 5, 3.41, 35.7712475, -78.6745753, 1.17, 126.65, 0.00, 240.18, 0.040000, 149068
ATT, 149078, 0.00, 0.36, 0.00, 0.42, 174.79, 174.79
RCIN, 149078, 1530, 1520, 1141, 1920, 1121, 1500, 1115, 1500
RCOU, 149078, 1197, 1197, 1197, 1197, 1197, 1197, 32767, 32767
IMU, 149079, 0.000037, 0.000766, 0.000239, 0.194996, -0.240564, -9.726580
IMU, 149098, -0.000494, -0.001362, -0.000292, 0.202147, -0.240564, -9.721866
IMU, 149118, -0.000494, -0.001362, 0.000239, 0.194996, -0.252557, -9.731293
IMU, 149137, -0.000494, -0.000297, 0.000239, 0.194996, -0.254955, -9.714794
CTUN, 149158, 0, 0, 0, 0.000000, 1.090000, -0.24, 0.00, 0.00, 0, -20
IMU, 149160, 0.000037, -0.000297, -0.000824, 0.209299, -0.252557, -9.728935
ATT, 149177, 0.00, 0.36, 0.00, 0.43, 174.78, 174.78
RCIN, 149177, 1530, 1520, 1141, 1920, 1121, 1500, 1114, 1500
RCOU, 149178, 1197, 1197, 1197, 1197, 1197, 1197, 32767, 32767
IMU, 149178, 0.000037, 0.000234, -0.000824, 0.187844, -0.253756, -9.751327
IMU, 149200, -0.000494, 0.001830, -0.000292, 0.183076, -0.254955, -9.753683
IMU, 149218, 0.000037, -0.000297, 0.000239, 0.181884, -0.239364, -9.685333
IMU, 149237, -0.000494, -0.000297, 0.000239, 0.178308, -0.239364, -9.727757
CTUN, 149258, 0, 0, 0, 0.000000, 0.980000, -0.06, 0.00, 0.00, 0, -22
IMU, 149260, 0.000037, 0.000766, 0.000239, 0.191420, -0.234567, -9.730114
GPS, 3, 484716400, 1785, 5, 3.41, 35.7712474, -78.6745755, 0.96, 126.61, 0.02, 240.18, 0.040000, 149268
ATT, 149278, 0.00, 0.36, 0.00, 0.45, 174.78, 174.78
RCIN, 149278, 1530, 1520, 1141, 1920, 1122, 1500, 1115, 1500
RCOU, 149278, 1197, 1197, 1197, 1197, 1197, 1197, 32767, 32767
IMU, 149278, -0.000494, -0.000297, -0.000292, 0.193804, -0.242962, -9.707725
IMU, 149298, 0.000037, 0.000234, 0.000239, 0.200955, -0.256155, -9.720686
IMU, 149318, 0.000569, -0.000297, 0.000239, 0.190228, -0.254955, -9.728935
IMU, 149338, 0.000569, -0.000830, -0.000292, 0.193804, -0.229770, -9.745434
CTUN, 149358, 0, 0, 0, 0.000000, 0.890000, -0.25, 0.00, 0.00, 0, -24
IMU, 149360, 0.000569, 0.000766, 0.000239, 0.184268, -0.254955, -9.714794
ATT, 149378, 0.00, 0.37, 0.00, 0.46, 174.78, 174.78
RCIN, 149378, 1530, 1519, 1141, 1920, 1122, 1500, 1115, 1500
RCOU, 149378, 1197, 1197, 1197, 1197, 1197, 1197, 32767, 32767
IMU, 149379, 0.000569, 0.000234, 0.000239, 0.180692, -0.252557, -9.713616
IMU, 149399, 0.000037, -0.000297, -0.000292, 0.187844, -0.233368, -9.719508
IMU, 149418, 0.000037, -0.000297, 0.000239, 0.192612, -0.253756, -9.713616
IMU, 149438, -0.000494, -0.000297, -0.000292, 0.200955, -0.256155, -9.741899
CTUN, 149458, 0, 0, 0, 0.000000, 0.800000, -0.24, 0.00, 0.00, 0, -25
IMU, 149460, -0.000494, -0.000297, -0.000824, 0.205723, -0.252557, -9.725400
GPS, 3, 484716600, 1785, 5, 3.41, 35.7712474, -78.6745758, 0.78, 126.57, 0.04, 240.18, 0.070000, 149468
ATT, 149479, 0.00, 0.37, 0.00, 0.47, 174.77, 174.77
RCIN, 149479, 1530, 1520, 1141, 1920, 1122, 1500, 1115, 1500
RCOU, 149479, 1197, 1197, 1197, 1197, 1197, 1197, 32767, 32767
IMU, 149480, -0.000494, -0.000297, -0.000292, 0.193804, -0.252557, -9.724222
IMU, 149498, -0.001026, -0.000830, 0.000239, 0.209299, -0.251357, -9.746613
IMU, 149518, 0.000569, -0.000297, -0.000824, 0.196188, -0.252557, -9.718330
IMU, 149537, -0.000494, 0.000766, -0.000292, 0.200955, -0.251357, -9.704188
CTUN, 149558, 0, 0, 0, 0.000000, 0.710000, -0.16, 0.00, 0.00, 0, -27
IMU, 149560, -0.000494, 0.000234, 0.000239, 0.186652, -0.241763, -9.701832
ATT, 149578, 0.00, 0.37, 0.00, 0.48, 174.77, 174.77
RCIN, 149578, 1530, 1520, 1141, 1920, 1122, 1500, 1115, 1500
RCOU, 149578, 1197, 1197, 1197, 1197, 1197, 1197, 32767, 32767
IMU, 149578, -0.000494, -0.000297, 0.000239, 0.190228, -0.251357, -9.708902
IMU, 149600, -0.000494, 0.000766, 0.001303, 0.202147, -0.241763, -9.727757
IMU, 149619, -0.000494, -0.001362, 0.000239, 0.205723, -0.245361, -9.721866
IMU, 149639, 0.000569, -0.000830, 0.000239, 0.205723, -0.234567, -9.707725
CTUN, 149658, 0, 0, 0, 0.000000, 0.620000, -0.30, 0.00, 0.00, 0, -28
IMU, 149660, -0.000494, 0.000766, 0.000771, 0.190228, -0.263350, -9.717152
ATT, 149678, 0.00, 0.37, 0.00, 0.50, 174.77, 174.77
RCIN, 149678, 1530, 1520, 1141, 1920, 1121, 1500, 1115, 1500
RCOU, 149678, 1197, 1197, 1197, 1197, 1197, 1197, 32767, 32767
IMU, 149679, -0.000494, -0.000297, -0.000292, 0.187844, -0.247759, -9.713616
GPS, 3, 484716800, 1785, 5, 3.41, 35.7712472, -78.6745760, 0.59, 126.59, 0.05, 240.18, 0.060000, 149688
IMU, 149698, 0.000037, 0.000234, 0.000239, 0.174732, -0.242962, -9.739541
IMU, 149718, -0.000494, 0.000234, 0.000239, 0.180692, -0.239364, -9.730114
IMU, 149738, 0.000037, -0.000297, -0.000292, 0.191420, -0.246560, -9.721866
CTUN, 149758, 0, 0, 0, 0.000000, 0.540000, -0.32, 0.00, 0.00, 0, -30
IMU, 149761, 0.000569, 0.000766, 0.000239, 0.196188, -0.251357, -9.719508
ATT, 149780, 0.00, 0.38, 0.00, 0.51, 174.77, 174.77
RCIN, 149780, 1530, 1520, 1141, 1920, 1121, 1500, 1114, 1500
RCOU, 149780, 1197, 1197, 1197, 1197, 1197, 1197, 32767, 32767
IMU, 149780, 0.000569, 0.000234, 0.000239, 0.193804, -0.245361, -9.727757
IMU, 149800, -0.000494, -0.000297, -0.000292, 0.193804, -0.241763, -9.731293
IMU, 149818, 0.000037, -0.000297, -0.000292, 0.185460, -0.236966, -9.738363
IMU, 149838, -0.000494, -0.000297, 0.000239, 0.189036, -0.244162, -9.750148
DU32, 7, 303705
CURR, 149849, 0, 0, 1330, 0, 5051, 0.000000
CTUN, 149858, 0, 0, 0, 0.000000, 0.450000, -0.27, 0.00, 0.00, 0, -31
IMU, 149861, 0.001101, 0.000234, -0.000824, 0.179500, -0.239364, -9.718330
ATT, 149879, 0.00, 0.38, 0.00, 0.52, 174.77, 174.77
RCIN, 149879, 1529, 1520, 1141, 1920, 1122, 1500, 1115, 1500
RCOU, 149879, 1197, 1197, 1197, 1197, 1197, 1197, 32767, 32767
IMU, 149880, -0.000494, -0.000297, -0.000824, 0.187844, -0.251357, -9.712438
GPS, 3, 484717000, 1785, 5, 3.41, 35.7712468, -78.6745762, 0.42, 126.55, 0.04, 240.18, 0.070000, 149888
IMU, 149899, -0.000494, -0.000297, 0.000239, 0.199763, -0.242962, -9.752504
IMU, 149919, 0.000569, -0.000830, -0.000824, 0.181884, -0.238165, -9.712438
IMU, 149938, -0.000494, 0.000766, 0.000239, 0.198571, -0.252557, -9.711259
CTUN, 149958, 0, 0, 0, 0.000000, 0.370000, -0.35, 0.00, 0.00, 0, -32
IMU, 149961, -0.000494, -0.000297, -0.000824, 0.183076, -0.247759, -9.721866
ATT, 149978, 0.00, 0.38, 0.00, 0.53, 174.76, 174.76
RCIN, 149978, 1529, 1520, 1141, 1920, 1122, 1500, 1115, 1500
RCOU, 149978, 1197, 1197, 1197, 1197, 1197, 1197, 32767, 32767
IMU, 149979, -0.000494, 0.000766, 0.000239, 0.194996, -0.264550, -9.734828
IMU, 150000, -0.000494, -0.000297, 0.000239, 0.181884, -0.252557, -9.728935
IMU, 150018, -0.000494, 0.000766, 0.000239, 0.210491, -0.258553, -9.712438
IMU, 150039, 0.000569, -0.000297, 0.000239, 0.174732, -0.256155, -9.717152
CTUN, 150058, 0, 0, 0, 0.000000, 0.290000, -0.17, 0.00, 0.00, 0, -33
IMU, 150061, -0.000494, 0.000234, 0.000771, 0.183076, -0.238165, -9.754862
ATT, 150079, 0.00, 0.39, 0.00, 0.55, 174.76, 174.76
RCIN, 150079, 1529, 1520, 1141, 1920, 1122, 1500, 1114, 1500
RCOU, 150080, 1197, 1197, 1197, 1197, 1197, 1197, 32767, 32767
IMU, 150080, 0.000037, -0.000297, -0.000292, 0.190228, -0.253756, -9.727757
GPS, 3, 484717200, 1785, 5, 3.41, 35.7712466, -78.6745766, 0.26, 126.51, 0.03, 240.18, 0.050000, 150088
IMU, 150099, 0.000569, 0.000234, 0.000239, 0.189036, -0.254955, -9.724222
IMU, 150119, 0.000037, 0.000234, 0.000239, 0.193804, -0.236966, -9.759576
IMU, 150140, -0.001026, -0.000830, 0.000239, 0.192612, -0.256155, -9.730114
CTUN, 150159, 0, 0, 0, 0.000000, 0.230000, -0.16, 0.00, 0.00, 0, -34
IMU, 150161, -0.001026, -0.000830, 0.000239, 0.186652, -0.241763, -9.744255
ATT, 150178, 0.00, 0.39, 0.00, 0.56, 174.75, 174.75
RCIN, 150178, 1529, 1520, 1141, 1920, 1122, 1500, 1115, 1500
RCOU, 150179, 1197, 1197, 1197, 1197, 1197, 1197, 32767, 32767
IMU, 150179, 0.000037, 0.000234, 0.001303, 0.179500, -0.242962, -9.766645
IMU, 150200, 0.000569, -0.000297, 0.000239, 0.191420, -0.236966, -9.738363
IMU, 150220, -0.000494, 0.000766, 0.000771, 0.175924, -0.241763, -9.754862
IMU, 150238, 0.000569, 0.000766, -0.000824, 0.189036, -0.247759, -9.723043
CTUN, 150259, 0, 0, 0, 0.000000, 0.160000, -0.27, 0.00, 0.00, 0, -35
IMU, 150261, -0.000494, -0.000297, -0.000292, 0.179500, -0.229770, -9.753683
ATT, 150278, 0.00, 0.39, 0.00, 0.57, 174.75, 174.75
RCIN, 150279, 1529, 1520, 1141, 1920, 1122, 1500, 1115, 1500
RCOU, 150279, 1197, 1197, 1197, 1197, 1197, 1197, 32767, 32767
IMU, 150280, -0.000494, 0.000234, -0.000292, 0.190228, -0.257354, -9.713616
GPS, 3, 484717400, 1785, 5, 3.41, 35.7712464, -78.6745768, 0.14, 126.46, 0.03, 240.18, 0.040000, 150288
IMU, 150298, 0.000569, -0.001362, 0.000239, 0.205723, -0.234567, -9.703011
IMU, 150320, 0.000037, 0.000766, 0.000239, 0.205723, -0.236966, -9.739541
IMU, 150340, 0.000569, -0.000297, 0.000239, 0.186652, -0.245361, -9.725400
CTUN, 150359, 0, 0, 0, 0.000000, 0.100000, -0.17, 0.00, 0.00, 0, -35
IMU, 150361, 0.000037, -0.001362, 0.000239, 0.192612, -0.251357, -9.736007
ATT, 150379, 0.00, 0.39, 0.00, 0.58, 174.75, 174.75
RCIN, 150379, 1529, 1520, 1140, 1920, 1122, 1500, 1114, 1500
RCOU, 150380, 1197, 1197, 1197, 1197, 1197, 1197, 32767, 32767
IMU, 150380, -0.000494, -0.000830, -0.000292, 0.204531, -0.242962, -9.724222
IMU, 150401, 0.000037, -0.000830, 0.000239, 0.190228, -0.252557, -9.718330
IMU, 150420, 0.000569, -0.000830, -0.000292, 0.186652, -0.260952, -9.715973
IMU, 150438, -0.000494, -0.000297, -0.000824, 0.202147, -0.247759, -9.721866
CTUN, 150459, 0, 0, 0, 0.000000, 0.040000, -0.19, 0.00, 0.00, 0, -36
IMU, 150462, 0.000037, -0.000297, -0.000824, 0.168772, -0.242962, -9.718330
ATT, 150480, 0.00, 0.40, 0.00, 0.59, 174.75, 174.75
RCIN, 150480, 1529, 1520, 1141, 1920, 1122, 1500, 1115, 1500
RCOU, 150480, 1197, 1197, 1197, 1197, 1197, 1197, 32767, 32767
IMU, 150480, 0.000569, -0.000297, 0.000239, 0.184268, -0.239364, -9.740721
GPS, 3, 484717600, 1785, 5, 3.41, 35.7712462, -78.6745771, 0.02, 126.38, 0.01, 240.18, 0.080000, 150489
IMU, 150499, 0.000037, 0.000766, 0.000239, 0.197380, -0.236966, -9.717152
IMU, 150520, 0.000569, -0.001362, -0.000824, 0.189036, -0.226172, -9.760754
IMU, 150540, -0.000494, -0.000297, 0.000771, 0.183076, -0.229770, -9.751327
CTUN, 150559, 0, 0, 0, 0.000000, 0.000000, -0.24, 0.00, 0.00, 0, -36
IMU, 150561, 0.000569, 0.000766, -0.000292, 0.191420, -0.245361, -9.725400
ATT, 150579, 0.00, 0.40, 0.00, 0.60, 174.74, 174.74
RCIN, 150579, 1529, 1520, 1140, 1920, 1122, 1500, 1115, 1500
RCOU, 150580, 1197, 1197, 1197, 1197, 1197, 1197, 32767, 32767
IMU, 150580, -0.000494, -0.000297, 0.000239, 0.185460, -0.238165, -9.721866
IMU, 150601, -0.000494, -0.000297, 0.000239, 0.174732, -0.254955, -9.727757
IMU, 150620, -0.001026, -0.000297, 0.000239, 0.186652, -0.244162, -9.730114
IMU, 150639, 0.000037, 0.000234, -0.000824, 0.183076, -0.239364, -9.708902
CTUN, 150659, 0, 0, 0, 0.000000, -0.060000, -0.23, 0.00, 0.00, 0, -37
IMU, 150662, 0.001101, -0.000297, -0.000824, 0.186652, -0.236966, -9.751327
ATT, 150679, 0.00, 0.40, 0.00, 0.61, 174.74, 174.74
RCIN, 150680, 1529, 1520, 1139, 1920, 1122, 1500, 1114, 1500
RCOU, 150680, 1197, 1197, 1197, 1197, 1197, 1197, 32767, 32767
IMU, 150680, 0.001101, -0.000830, 0.000239, 0.186652, -0.247759, -9.718330
GPS, 3, 484717800, 1785, 5, 3.41, 35.7712460, -78.6745773, -0.08, 126.31, 0.02, 240.18, 0.090000, 150689
IMU, 150699, 0.000569, -0.000297, 0.000771, 0.189036, -0.252557, -9.731293
IMU, 150719, -0.000494, -0.000297, -0.000292, 0.185460, -0.248959, -9.740721
IMU, 150740, 0.000569, -0.000297, 0.000239, 0.191420, -0.246560, -9.740721
CTUN, 150760, 0, 0, 0, 0.000000, -0.110000, -0.21, 0.00, 0.00, 0, -37
IMU, 150761, 0.000569, -0.000297, 0.000771, 0.193804, -0.250158, -9.725400
ATT, 150780, 0.00, 0.41, 0.00, 0.62, 174.74, 174.74
RCIN, 150780, 1529, 1520, 1141, 1920, 1122, 1500, 1114, 1500
RCOU, 150780, 1197, 1197, 1197, 1197, 1197, 1197, 32767, 32767
IMU, 150780, 0.000037, -0.000830, 0.000239, 0.204531, -0.244162, -9.753683
IMU, 150801, 0.000037, -0.000297, 0.000239, 0.189036, -0.245361, -9.767824
IMU, 150820, -0.000494, -0.000830, 0.000239, 0.180692, -0.248959, -9.741899
IMU, 150839, -0.000494, -0.001362, 0.000239, 0.202147, -0.252557, -9.741899
DU32, 7, 303705
CURR, 150850, 0, 0, 1332, 0, 5073, 0.000000
CTUN, 150860, 0, 0, 0, 0.000000, -0.150000, -0.17, 0.00, 0.00, 0, -38
IMU, 150861, 0.000569, -0.000297, 0.000239, 0.192612, -0.232169, -9.715973
GPS, 3, 484718000, 1785, 5, 3.41, 35.7712460, -78.6745775, -0.16, 126.28, 0.05, 240.18, 0.110000, 150869
ATT, 150880, 0.00, 0.41, 0.00, 0.63, 174.73, 174.73
RCIN, 150880, 1529, 1520, 1141, 1920, 1121, 1500, 1114, 1500
RCOU, 150881, 1197, 1197, 1197, 1197, 1197, 1197, 32767, 32767
IMU, 150881, -0.000494, -0.001362, -0.000292, 0.190228, -0.240564, -9.721866
IMU, 150900, 0.000037, -0.000297, 0.000239, 0.196188, -0.244162, -9.751327
IMU, 150920, 0.000037, -0.000830, 0.000239, 0.184268, -0.248959, -9.712438
IMU, 150939, 0.000569, 0.000766, 0.000239, 0.205723, -0.247759, -9.745434
CTUN, 150960, 0, 0, 0, 0.000000, -0.200000, -0.23, 0.00, 0.00, 0, -38
IMU, 150961, 0.000569, 0.000234, 0.000771, 0.202147, -0.257354, -9.720686
ATT, 150979, 0.00, 0.41, 0.00, 0.64, 174.73, 174.73
RCIN, 150980, 1529, 1520, 1141, 1920, 1122, 1500, 1114, 1500
RCOU, 150980, 1197, 1197, 1197, 1197, 1197, 1197, 32767, 32767
IMU, 150980, 0.000037, 0.000234, 0.000239, 0.185460, -0.250158, -9.746613
IMU, 151001, -0.000494, 0.000234, 0.000239, 0.202147, -0.253756, -9.736007
IMU, 151019, -0.000494, -0.001894, -0.000292, 0.198571, -0.217777, -9.705367
IMU, 151039, -0.000494, -0.001894, 0.000239, 0.204531, -0.253756, -9.713616
CTUN, 151060, 0, 0, 0, 0.000000, -0.240000, -0.27, 0.00, 0.00, 0, -38
IMU, 151062, 0.000569, -0.000830, 0.000239, 0.205723, -0.263350, -9.733649
GPS, 3, 484718200, 1785, 5, 3.41, 35.7712458, -78.6745777, -0.25, 126.23, 0.04, 240.18, 0.090000, 151070
ATT, 151080, 0.00, 0.42, 0.00, 0.64, 174.73, 174.73
RCIN, 151080, 1529, 1520, 1140, 1920, 1122, 1500, 1114, 1500
RCOU, 151080, 1197, 1197, 1197, 1197, 1197, 1197, 32767, 32767
IMU, 151080, 0.000569, -0.000830, 0.000239, 0.181884, -0.251357, -9.706545
IMU, 151100, 0.000569, 0.000766, 0.000771, 0.175924, -0.258553, -9.750148
IMU, 151121, 0.000037, -0.000297, -0.000824, 0.175924, -0.242962, -9.732471
IMU, 151140, 0.000569, -0.001362, 0.000239, 0.169964, -0.251357, -9.719508
CTUN, 151160, 0, 0, 0, 0.000000, -0.280000, -0.24, 0.00, 0.00, 0, -39
IMU, 151162, -0.001026, 0.000766, -0.000824, 0.189036, -0.248959, -9.710081
ATT, 151181, 0.00, 0.42, 0.00, 0.65, 174.72, 174.72
RCIN, 151181, 1529, 1520, 1140, 1920, 1121, 1500, 1114, 1500
RCOU, 151181, 1197, 1197, 1197, 1197, 1197, 1197, 32767, 32767
IMU, 151182, 0.000569, -0.000297, -0.000292, 0.187844, -0.259753, -9.738363
IMU, 151201, -0.000494, 0.000234, -0.000824, 0.192612, -0.238165, -9.737185
IMU, 151220, 0.000569, -0.000297, 0.000239, 0.189036, -0.260952, -9.733649
IMU, 151240, -0.000494, 0.000234, 0.000239, 0.184268, -0.251357, -9.744255
CTUN, 151260, 0, 0, 0, 0.000000, -0.320000, -0.34, 0.00, 0.00, 0, -39
IMU, 151262, 0.000569, -0.000830, 0.000239, 0.186652, -0.247759, -9.723043
ATT, 151280, 0.00, 0.42, 0.00, 0.66, 174.72, 174.72
RCIN, 151280, 1529, 1520, 1141, 1920, 1122, 1500, 1114, 1500
RCOU, 151280, 1197, 1197, 1197, 1197, 1197, 1197, 32767, 32767
IMU, 151280, -0.000494, -0.000297, 0.000239, 0.218835, -0.238165, -9.756040
GPS, 3, 484718400, 1785, 5, 3.41, 35.7712458, -78.6745779, -0.34, 126.19, 0.02, 240.18, 0.120000, 151289
IMU, 151300, 0.000037, -0.000830, -0.000824, 0.185460, -0.218976, -9.740721
IMU, 151320, 0.000037, -0.000297, -0.000824, 0.192612, -0.241763, -9.723043
IMU, 151340, 0.000037, 0.000766, 0.000239, 0.216451, -0.244162, -9.746613
CTUN, 151360, 0, 0, 0, 0.000000, -0.370000, -0.25, 0.00, 0.00, 0, -39
IMU, 151362, 0.000569, 0.000766, 0.000239, 0.190228, -0.253756, -9.761932
ATT, 151381, 0.00, 0.43, 0.00, 0.67, 174.72, 174.72
RCIN, 151381, 1529, 1520, 1141, 1920, 1122, 1500, 1114, 1500
RCOU, 151381, 1197, 1197, 1197, 1197, 1197, 1197, 32767, 32767
IMU, 151381, 0.000037, -0.000830, 0.000239, 0.187844, -0.230969, -9.733649
IMU, 151401, 0.000037, -0.000297, 0.000239, 0.197380, -0.250158, -9.715973
IMU, 151420, -0.001559, 0.000234, 0.000771, 0.192612, -0.222574, -9.706545
IMU, 151441, 0.000569, 0.000234, -0.000292, 0.193804, -0.253756, -9.740721
CTUN, 151460, 0, 0, 0, 0.000000, -0.400000, -0.35, 0.00, 0.00, 0, -39
IMU, 151463, -0.000494, 0.000766, 0.000771, 0.199763, -0.251357, -9.725400
ATT, 151481, 0.00, 0.43, 0.00, 0.68, 174.72, 174.72
RCIN, 151482, 1529, 1520, 1141, 1920, 1122, 1500, 1117, 1500
RCOU, 151482, 1197, 1197, 1197, 1197, 1197, 1197, 32767, 32767
IMU, 151482, 0.001101, -0.000830, 0.000771, 0.192612, -0.244162, -9.718330
GPS, 3, 484718600, 1785, 5, 3.41, 35.7712457, -78.6745780, -0.42, 126.15, 0.05, 240.18, 0.110000, 151490
IMU, 151500, -0.000494, -0.000830, 0.000239, 0.184268, -0.224973, -9.741899
IMU, 151520, 0.000569, 0.000234, 0.000239, 0.177116, -0.242962, -9.713616
IMU, 151540, -0.001559, -0.000297, 0.000239, 0.187844, -0.252557, -9.738363
CTUN, 151560, 0, 0, 0, 0.000000, -0.440000, -0.20, 0.00, 0.00, 0, -39
IMU, 151562, 0.000037, -0.000297, 0.000239, 0.203339, -0.239364, -9.738363
ATT, 151580, 0.00, 0.43, 0.00, 0.69, 174.71, 174.71
RCIN, 151580, 1529, 1520, 1140, 1884, 1122, 1500, 1114, 1500
RCOU, 151580, 1197, 1197, 1197, 1197, 1197, 1197, 32767, 32767
IMU, 151581, 0.000037, -0.001362, 0.000771, 0.185460, -0.253756, -9.725400
IMU, 151601, -0.000494, -0.000830, -0.000292, 0.190228, -0.260952, -9.720686
IMU, 151620, -0.000494, -0.000297, -0.000292, 0.184268, -0.233368, -9.717152
IMU, 151640, -0.000494, -0.001362, 0.000239, 0.174732, -0.251357, -9.706545
CTUN, 151661, 0, 0, 0, 0.000000, -0.470000, -0.21, 0.00, 0.00, 0, -39
IMU, 151662, 0.000037, -0.000830, -0.000292, 0.186652, -0.246560, -9.724222
GPS, 3, 484718800, 1785, 5, 3.41, 35.7712457, -78.6745782, -0.48, 126.10, 0.02, 240.18, 0.090000, 151670
ATT, 151680, 0.00, 0.43, 0.00, 0.70, 174.71, 174.71
RCIN, 151680, 1529, 1520, 1140, 1816, 1122, 1500, 1114, 1500
RCOU, 151681, 1197, 1197, 1197, 1197, 1197, 1197, 32767, 32767
IMU, 151681, 0.000037, -0.000297, 0.000239, 0.174732, -0.263350, -9.776073
IMU, 151701, 0.000037, -0.000830, -0.000824, 0.184268, -0.253756, -9.747790
IMU, 151721, 0.000569, -0.001362, 0.000239, 0.193804, -0.240564, -9.714794
IMU, 151741, 0.000569, -0.000830, 0.000239, 0.190228, -0.244162, -9.717152
CTUN, 151760, 0, 0, 0, 0.000000, -0.500000, -0.26, 0.00, 0.00, 0, -39
IMU, 151763, -0.000494, -0.000297, 0.000239, 0.184268, -0.257354, -9.734828
ATT, 151780, 0.00, 0.44, 0.00, 0.71, 174.71, 174.71
RCIN, 151781, 1529, 1516, 1140, 1691, 1122, 1500, 1114, 1500
RCOU, 151781, 1197, 1197, 1197, 1197, 1197, 1197, 32767, 32767
IMU, 151781, 0.000037, 0.000766, 0.000239, 0.196188, -0.242962, -9.720686
IMU, 151802, 0.000037, -0.000297, 0.000239, 0.202147, -0.239364, -9.743077
IMU, 151820, 0.000569, -0.000830, -0.000824, 0.187844, -0.241763, -9.720686
IMU, 151840, 0.000037, -0.000297, 0.000239, 0.202147, -0.234567, -9.721866
DU32, 7, 303705
CURR, 151851, 0, 0, 1329, 0, 5051, 0.000000
CTUN, 151861, 0, 0, 0, 0.000000, -0.530000, -0.23, 0.00, 0.00, 0, -39
IMU, 151862, 0.000037, -0.000297, 0.000239, 0.212875, -0.232169, -9.712438
ATT, 151880, 0.00, 0.44, 0.00, 0.71, 174.70, 174.70
RCIN, 151880, 1529, 1520, 1140, 1569, 1121, 1500, 1114, 1500
RCOU, 151881, 1197, 1197, 1197, 1197, 1197, 1197, 32767, 32767
IMU, 151881, -0.000494, 0.000766, 0.000239, 0.205723, -0.246560, -9.712438
GPS, 3, 484719000, 1785, 5, 3.41, 35.7712456, -78.6745783, -0.54, 126.06, 0.04, 240.18, 0.120000, 151890
IMU, 151900, 0.000569, -0.000830, 0.000239, 0.189036, -0.250158, -9.724222
IMU, 151920, 0.000569, -0.000297, 0.001303, 0.190228, -0.228571, -9.731293
IMU, 151940, 0.000569, -0.000830, 0.000239, 0.197380, -0.245361, -9.724222
CTUN, 151961, 0, 0, 0, 0.000000, -0.550000, -0.24, 0.00, 0.00, 0, -39
IMU, 151963, 0.000569, 0.000766, -0.000292, 0.190228, -0.250158, -9.725400
ATT, 151981, 0.00, 0.44, 0.00, 0.72, 174.70, 174.70
RCIN, 151981, 1529, 1520, 1140, 1520, 1121, 1500, 1114, 1500
RCOU, 151981, 1197, 1197, 1197, 1197, 1197, 1197, 32767, 32767
IMU, 151981, -0.000494, 0.001298, 0.000239, 0.168772, -0.247759, -9.741899
IMU, 152002, 0.000569, 0.000766, -0.000824, 0.204531, -0.233368, -9.728935
IMU, 152021, 0.000037, 0.000234, 0.000239, 0.197380, -0.254955, -9.727757
IMU, 152041, -0.000494, -0.000830, 0.000239, 0.184268, -0.234567, -9.723043
CTUN, 152061, 0, 0, 0, 0.000000, -0.580000, -0.36, 0.00, 0.00, 0, -39
IMU, 152063, 0.000037, -0.000830, 0.000239, 0.190228, -0.238165, -9.744255
GPS, 3, 484719200, 1785, 5, 3.41, 35.7712455, -78.6745786, -0.58, 126.01, 0.04, 240.18, 0.099999, 152071
ATT, 152081, 0.00, 0.45, 0.00, 0.74, 174.69, 174.69
RCIN, 152081, 1529, 1520, 1140, 1520, 1122, 1500, 1114, 1500
RCOU, 152082, 1197, 1197, 1197, 1197, 1197, 1197, 32767, 32767
IMU, 152082, 0.000569, 0.000234, 0.000239, 0.184268, -0.241763, -9.738363
IMU, 152101, -0.001559, 0.000234, 0.000239, 0.199763, -0.242962, -9.711259
IMU, 152121, -0.000494, -0.000297, 0.000239, 0.187844, -0.227371, -9.725400
IMU, 152141, 0.000037, -0.000297, -0.000824, 0.184268, -0.241763, -9.719508
CTUN, 152161, 0, 0, 0, 0.000000, -0.610000, -0.36, 0.00, 0.00, 0, -39
IMU, 152163, -0.001026, -0.000297, 0.000239, 0.194996, -0.245361, -9.726580
ATT, 152181, 0.00, 0.45, 0.00, 0.74, 174.69, 174.69
RCIN, 152181, 1529, 1520, 1140, 1520, 1122, 1500, 1114, 1500
RCOU, 152181, 1197, 1197, 1197, 1197, 1197, 1197, 32767, 32767
IMU, 152181, 0.000569, 0.000234, 0.000239, 0.193804, -0.235766, -9.719508
IMU, 152202, 0.001101, -0.000830, 0.000239, 0.183076, -0.234567, -9.740721
IMU, 152221, 0.000569, -0.000297, 0.000239, 0.177116, -0.239364, -9.754862
IMU, 152241, -0.000494, -0.000297, -0.000292, 0.187844, -0.233368, -9.733649
EV, 28
EV, 15
CTUN, 152262, 171, 0, 145, 0.000000, -0.630000, -0.22, 0.00, 0.00, 0, -39
IMU, 152264, 0.000569, -0.001362, -0.000292, 0.184268, -0.252557, -9.714794
ATT, 152282, 0.00, 0.45, 0.00, 0.75, 174.69, 174.69
RCIN, 152282, 1529, 1520, 1200, 1520, 1121, 1500, 1119, 1500
RCOU, 152282, 1268, 1261, 1256, 1272, 1260, 1268, 32767, 32767
IMU, 152282, -0.000494, -0.001362, -0.000824, 0.186652, -0.239364, -9.732471
GPS, 3, 484719400, 1785, 5, 3.41, 35.7712455, -78.6745788, -0.64, 125.96, 0.04, 240.18, 0.110000, 152291
IMU, 152302, 0.000569, -0.000297, 0.000239, 0.193804, -0.235766, -9.769003
IMU, 152322, 0.000569, -0.000297, -0.000292, 0.202147, -0.235766, -9.725400
IMU, 152342, 0.000037, -0.001362, 0.000771, 0.191420, -0.163808, -9.720686
CTUN, 152362, 206, 0, 206, 0.000000, -0.650000, -0.39, 0.00, 0.00, 0, -39
IMU, 152364, 0.001633, -0.001894, -0.000292, 0.161620, -0.266948, -9.675906
ATT, 152382, 0.00, 0.45, 0.00, 0.76, 174.69, 174.69
RCIN, 152382, 1529, 1520, 1232, 1528, 1122, 1500, 1119, 1500
RCOU, 152382, 1306, 1297, 1291, 1311, 1297, 1305, 32767, 32767
IMU, 152383, 0.001633, 0.001830, 0.003432, 0.218835, -0.265749, -9.764289
IMU, 152403, -0.000494, 0.004491, 0.002367, 0.274857, -0.301728, -9.737185
IMU, 152422, -0.001559, -0.003490, -0.005081, 0.130629, -0.230969, -9.753683
IMU, 152442, -0.003687, -0.000297, -0.000292, 0.153277, -0.275343, -9.699475
CTUN, 152462, 287, 0, 287, 0.000000, -0.680000, -0.30, 0.00, 0.00, 0, -39
IMU, 152464, -0.002623, -0.001362, -0.000292, 0.223603, -0.367690, -9.632303
ATT, 152482, 0.00, 0.45, 0.00, 0.77, 174.69, 174.68
RCIN, 152483, 1529, 1520, 1314, 1520, 1122, 1500, 1119, 1500
RCOU, 152483, 1383, 1377, 1368, 1391, 1371, 1388, 32767, 32767
IMU, 152483, -0.002623, 0.006619, -0.004549, 0.241482, -0.377284, -9.596951
GPS, 3, 484719600, 1785, 5, 3.40, 35.7712454, -78.6745791, -0.69, 125.92, 0.07, 240.18, 0.110000, 152492
IMU, 152503, -0.000494, -0.000830, 0.006624, 0.254594, -0.200987, -9.667657
IMU, 152523, -0.004219, -0.005086, -0.003485, 0.180692, -0.308924, -9.741899
IMU, 152542, -0.001026, -0.009875, -0.000824, 0.147317, -0.145819, -9.741899
CTUN, 152563, 307, 0, 307, 0.000000, -0.700000, -0.38, 0.00, 0.00, 0, -39
IMU, 152564, 0.002165, 0.004491, -0.001356, 0.148509, -0.373686, -9.736007
ATT, 152582, 0.00, 0.45, 0.00, 0.78, 174.69, 174.68
RCIN, 152583, 1529, 1520, 1314, 1520, 1122, 1500, 1119, 1500
RCOU, 152583, 1384, 1376, 1365, 1394, 1369, 1390, 32767, 32767
IMU, 152583, -0.004219, 0.010344, 0.001835, 0.241482, -0.139822, -9.751327
IMU, 152604, 0.005890, -0.010408, 0.004496, 0.172348, -0.145819, -9.690047
IMU, 152623, 0.002165, 0.006619, -0.008274, 0.290353, -0.013896, -9.797285
IMU, 152643, -0.001559, 0.001830, 0.001303, 0.136589, -0.331711, -9.811427
CTUN, 152663, 307, 0, 307, 0.000000, -0.720000, -0.43, 0.00, 0.00, 0, -39
IMU, 152664, -0.000494, 0.002362, 0.015138, 0.583577, 0.197181, -9.673549
ATT, 152683, 0.00, 0.47, 0.00, 0.78, 174.69, 174.67
RCIN, 152683, 1529, 1520, 1315, 1520, 1121, 1500, 1119, 1500
RCOU, 152683, 1386, 1373, 1363, 1395, 1379, 1379, 32767, 32767
IMU, 152683, 0.014936, -0.006151, -0.028494, 0.181884, -0.644728, -9.547456
GPS, 3, 484719800, 1785, 5, 3.40, 35.7712453, -78.6745792, -0.73, 125.87, 0.03, 240.18, 0.120000, 152692
IMU, 152703, -0.007412, 0.020986, 0.016734, 0.317768, -0.072661, -9.884489
IMU, 152722, -0.021779, -0.033820, 0.013010, 0.451269, 0.116827, -9.459074
IMU, 152743, 0.037284, -0.001362, -0.038604, 0.087718, -0.542788, -10.07540
CTUN, 152763, 307, 0, 307, 0.000000, -0.750000, -0.46, 0.00, 0.00, 0, -38
IMU, 152764, -0.007944, 0.069940, 0.038551, 0.576425, -0.095448, -9.859742
ATT, 152782, 0.00, 0.45, 0.00, 0.80, 174.69, 174.69
RCIN, 152782, 1529, 1520, 1315, 1520, 1121, 1500, 1119, 1500
RCOU, 152783, 1381, 1376, 1393, 1366, 1396, 1362, 32767, 32767
IMU, 152783, -0.011137, -0.035417, -0.007742, 0.166388, -0.148217, -9.411936
IMU, 152804, 0.003762, -0.038609, -0.032751, 0.057919, -0.539190, -9.724222
IMU, 152822, -0.005283, 0.029500, 0.077395, 0.959047, 0.198380, -9.850315
IMU, 152843, 0.011743, -0.018389, -0.063613, -0.101803, -1.164026, -9.612270
DU32, 7, 303225
CURR, 152854, 307, 1866, 1288, 0, 5051, 0.000000
CTUN, 152863, 306, 0, 307, 0.000000, -0.770000, -0.49, 0.00, 0.00, 0, -38
IMU, 152864, -0.051045, 0.050252, 0.015138, 1.597942, 0.323107, -9.653516
ATT, 152882, 0.00, 0.46, 0.00, 0.80, 174.69, 174.68
RCIN, 152883, 1529, 1520, 1315, 1520, 1122, 1500, 1119, 1500
RCOU, 152883, 1430, 1327, 1397, 1361, 1449, 1309, 32767, 32767
IMU, 152883, 0.069743, -0.081710, -0.002421, -1.129280, -0.903778, -9.601665
GPS, 3, 484720000, 1785, 5, 3.40, 35.7712453, -78.6745794, -0.78, 125.83, 0.02, 240.18, 0.099999, 152892
IMU, 152903, -0.065412, 0.077922, -0.001888, 1.839911, -0.460036, -10.26748
IMU, 152923, 0.027706, -0.090756, -0.019448, -0.995779, 1.077468, -9.439039
IMU, 152943, -0.019118, 0.034289, 0.024716, -0.669180, -1.888405, -10.43718
CTUN, 152963, 307, 0, 307, 0.000000, -0.800000, -0.41, 0.00, 0.00, 0, -38
IMU, 152964, 0.007486, 0.049188, -0.015723, 1.589598, -0.072661, -8.992412
ATT, 152983, 0.00, 0.45, 0.00, 0.81, 174.69, 174.64
RCIN, 152983, 1529, 1520, 1315, 1520, 1121, 1500, 1119, 1500
RCOU, 152983, 1380, 1377, 1389, 1370, 1397, 1361, 32767, 32767
IMU, 152983, 0.008018, -0.049252, -0.019980, 0.112750, 1.811441, -9.573381
IMU, 153004, -0.020715, -0.035949, 0.040679, -1.386745, -1.026107, -10.44189
IMU, 153023, -0.009008, 0.075793, 0.024716, 0.614568, -3.164462, -9.765468
IMU, 153043, 0.026110, -0.005086, -0.020512, 1.049637, 1.839025, -9.732471
CTUN, 153064, 307, 0, 307, 0.000000, -0.810000, -0.41, 0.00, 0.00, 0, -37
IMU, 153065, -0.036678, -0.020518, -0.034879, 0.794555, 4.073324, -8.879281
ATT, 153083, 0.00, 0.38, 0.00, 0.84, 174.69, 174.67
RCIN, 153083, 1529, 1520, 1315, 1520, 1122, 1500, 1119, 1500
RCOU, 153083, 1365, 1395, 1350, 1409, 1334, 1425, 32767, 32767
IMU, 153083, -0.036678, 0.039610, -0.005613, 0.432197, -2.528832, -10.59745
GPS, 3, 484720200, 1785, 5, 3.40, 35.7712452, -78.6745796, -0.82, 125.77, 0.01, 240.18, 0.090000, 153092
IMU, 153103, -0.019118, -0.089160, 0.107193, -0.240072, -6.953056, -9.528601
IMU, 153123, 0.034092, -0.091820, 0.015670, -0.940949, -1.654541, -10.46075
IMU, 153143, 0.026110, 0.089628, -0.046586, -1.977961, 5.947832, -9.296449
CTUN, 153163, 305, 0, 305, 0.000000, -0.830000, -0.15, 0.00, 0.00, 0, -37
IMU, 153165, -0.032953, 0.092289, -0.069466, 0.029312, 5.505290, -10.33819
ATT, 153183, 0.00, 0.33, 0.00, 0.85, 174.69, 174.63
RCIN, 153183, 1529, 1520, 1313, 1520, 1121, 1500, 1119, 1500
RCOU, 153183, 1350, 1408, 1360, 1396, 1356, 1401, 32767, 32767
IMU, 153183, -0.036678, 0.019390, -0.069466, 2.282131, 0.690093, -9.427256
IMU, 153204, -0.043595, -0.051380, -0.021044, 2.587275, -1.317537, -8.537534
IMU, 153223, -0.034549, -0.041802, 0.028441, 1.395307, 0.314712, -9.893917
IMU, 153243, -0.028696, -0.017857, 0.030569, -0.458202, 1.143430, -9.801999
CTUN, 153264, 307, 0, 307, 0.000000, -0.830000, -0.34, 0.00, 0.00, 0, -36
IMU, 153265, -0.030825, 0.001830, 0.058771, -1.095905, -0.248959, -10.02826
ATT, 153283, 0.00, 0.30, 0.00, 0.86, 174.69, 174.70
RCIN, 153283, 1529, 1520, 1315, 1520, 1122, 1500, 1119, 1500
RCOU, 153284, 1394, 1363, 1393, 1366, 1368, 1391, 32767, 32767
IMU, 153284, -0.010604, -0.025307, 0.124221, -1.633482, -6.119541, -10.41361
GPS, 3, 484720400, 1785, 5, 3.40, 35.7712451, -78.6745798, -0.84, 125.72, 0.08, 240.18, 0.099999, 153293
IMU, 153303, 0.080917, -0.062554, 0.069945, -0.340197, -7.340430, -10.43718
IMU, 153323, 0.116569, -0.008279, -0.044457, -1.426080, -0.636333, -8.893423
IMU, 153343, 0.081982, 0.016729, -0.060421, -1.960081, 9.521751, -9.757218
CTUN, 153364, 230, 0, 243, 0.000000, -0.840000, -0.59, 0.00, 0.00, 0, -36
IMU, 153365, -0.068604, 0.060362, -0.038604, -1.937434, 11.59654, -9.127932
ATT, 153383, 0.00, 0.17, 0.00, 0.85, 174.69, 174.77
RCIN, 153383, 1529, 1520, 1236, 1525, 1122, 1500, 1119, 1500
RCOU, 153383, 1231, 1532, 1405, 1356, 1261, 1500, 32767, 32767
IMU, 153383, -0.226641, 0.053445, -0.030090, 0.293929, 3.495260, -10.57152
IMU, 153404, -0.130329, -0.039674, 0.021523, 1.671844, -2.531230, -11.04761
IMU, 153423, -0.076054, 0.013536, -0.032751, 2.176046, -5.024579, -9.613448
IMU, 153443, -0.025504, 0.057701, -0.016788, 2.178430, -3.038535, -7.836363
CTUN, 153464, 151, 0, 201, 0.000000, -0.860000, -0.36, 0.00, 0.00, 0, -36
IMU, 153465, 0.005358, 0.081114, -0.017320, 3.261928, 0.901171, -8.489218
ATT, 153482, 0.00, 0.26, 0.00, 0.92, 174.74, 174.74
RCIN, 153483, 1529, 1520, 1142, 1547, 1122, 1500, 1115, 1500
RCOU, 153483, 1197, 1197, 1197, 1197, 1197, 1197, 32767, 32767
IMU, 153483, -0.016990, 0.073133, -0.009338, 3.546808, 2.146046, -8.581137
IMU, 153502, -0.084036, -0.062554, 0.157743, 1.353588, -1.620960, -10.02826
GPS, 3, 484720600, 1785, 5, 3.40, 35.7712450, -78.6745799, -0.87, 125.67, 0.02, 240.18, 0.090000, 153511
IMU, 153522, 0.001101, -0.097141, 0.167321, -2.752740, -7.266074, -10.71647
IMU, 153542, 0.137321, -0.055637, 0.011413, -3.646715, -4.897453, -10.35351
CTUN, 153562, 0, 0, 0, 0.000000, -0.880000, -0.33, 0.00, 0.00, 0, -38
IMU, 153563, 0.153284, 0.038546, -0.101393, -1.645402, 4.497877, -9.571025
ATT, 153582, 0.00, 0.32, 0.00, 0.94, 174.80, 174.80
RCIN, 153582, 1529, 1520, 1142, 1521, 1121, 1500, 1116, 1500
RCOU, 153582, 1197, 1197, 1197, 1197, 1197, 1197, 32767, 32767
IMU, 153582, 0.055376, 0.100802, -0.089154, 2.083072, 6.781347, -8.511608
IMU, 153603, -0.086164, 0.005023, 0.030037, 2.397752, 1.500822, -10.04594
IMU, 153622, -0.084568, -0.076389, 0.058239, 0.112750, -4.859075, -10.31226
IMU, 153642, 0.002165, -0.027967, 0.014606, -1.432040, -3.770109, -10.30401
CTUN, 153663, 0, 0, 0, 0.000000, -0.880000, -0.39, 0.00, 0.00, 0, -37
IMU, 153664, 0.043138, -0.015729, -0.025833, -0.344965, -0.427655, -9.408401
ATT, 153682, 0.00, 0.33, 0.00, 0.95, 174.72, 174.72
RCIN, 153682, 1530, 1520, 1142, 1525, 1122, 1500, 1116, 1500
RCOU, 153682, 1197, 1197, 1197, 1197, 1197, 1197, 32767, 32767
IMU, 153682, 0.014404, 0.060362, -0.040732, 1.462057, 1.340115, -9.081972
GPS, 3, 484720800, 1785, 5, 3.40, 35.7712450, -78.6745800, -0.89, 125.71, 0.00, 240.18, 0.070000, 153692
IMU, 153702, -0.011669, 0.034821, -0.027430, 1.426298, 1.969749, -9.111433
IMU, 153722, -0.002091, -0.039141, 0.032166, -0.329469, -0.743071, -9.805534
IMU, 153742, -0.004751, 0.005023, 0.036955, -0.287750, -2.245796, -10.48903
CTUN, 153763, 0, 0, 0, 0.000000, -0.890000, -0.25, 0.00, 0.00, 0, -36
IMU, 153764, 0.025046, 0.036417, -0.021577, 0.671783, 1.148227, -9.436683
ATT, 153782, 0.00, 0.36, 0.00, 0.94, 174.76, 174.76
RCIN, 153783, 1530, 1520, 1142, 1538, 1122, 1500, 1116, 1500
RCOU, 153783, 1197, 1197, 1197, 1197, 1197, 1197, 32767, 32767
IMU, 153783, 0.017064, -0.038609, 0.020459, -0.365228, -0.323315, -9.831460
IMU, 153803, -0.046788, -0.002426, -0.007210, 0.431005, -0.986529, -10.12371
IMU, 153822, 0.039413, -0.018921, -0.024769, 0.321344, 0.786038, -9.229278
IMU, 153842, -0.015393, 0.005555, 0.029505, -0.510648, -1.032103, -9.744255
DU32, 7, 303193
CURR, 153852, 0, 3536, 1333, 0, 5073, 0.000000
PM, 0, 0, 5, 1000, 1791429, 22, 0, 0, 222
CTUN, 153863, 0, 0, 0, 0.000000, -0.900000, -0.49, 0.00, 0.00, 0, -35
IMU, 153865, 0.031431, 0.022050, -0.042861, 0.577617, 0.307516, -9.251668
ATT, 153882, 0.00, 0.38, 0.00, 0.96, 174.75, 174.75
RCIN, 153883, 1530, 1520, 1142, 1542, 1121, 1500, 1116, 1500
RCOU, 153883, 1197, 1197, 1197, 1197, 1197, 1197, 32767, 32767
IMU, 153883, 0.001101, 0.008215, 0.049725, -0.206697, -0.713089, -9.855029
IMU, 153902, -0.003687, -0.013068, -0.053503, 0.097254, -0.367690, -9.509746
GPS, 3, 484721000, 1785, 5, 3.40, 35.7712449, -78.6745803, -0.90, 125.71, 0.04, 240.18, 0.060000, 153912
IMU, 153922, 0.010147, -0.021582, 0.049193, -0.141138, -0.151815, -10.05065
IMU, 153942, 0.014404, -0.002426, -0.048714, -0.132795, -0.320917, -9.884489
EV, 15
CTUN, 153964, 140, 0, 140, 0.000000, -0.910000, -0.46, 0.00, 0.00, 0, -36
IMU, 153965, -0.003687, -0.017325, 0.051321, -0.002870, -0.274144, -9.825568
ATT, 153984, 0.00, 0.41, 0.00, 0.95, 174.71, 174.74
RCIN, 153984, 1530, 1520, 1210, 1520, 1121, 1500, 1119, 1500
RCOU, 153984, 1285, 1272, 1264, 1294, 1280, 1278, 32767, 32767
IMU, 153984, 0.014936, -0.002958, -0.034347, 0.197380, -0.045077, -9.598129
IMU, 154005, -0.012201, 0.026839, -0.004017, 0.544242, -0.761061, -9.816140
IMU, 154024, 0.025046, 0.013004, 0.068349, -0.066044, 0.090443, -9.865635
IMU, 154044, -0.013797, -0.008811, -0.078512, -0.039821, -0.863001, -9.605200
CTUN, 154065, 341, 0, 314, 0.000000, -0.920000, -0.35, 0.00, 0.00, 0, -35
IMU, 154066, 0.003229, -0.021050, 0.021523, 0.317768, -0.181798, -9.688869
ATT, 154084, 0.00, 0.42, 0.00, 0.97, 174.71, 174.77
RCIN, 154084, 1530, 1520, 1344, 1520, 1122, 1500, 1119, 1500
RCOU, 154084, 1417, 1402, 1402, 1416, 1394, 1424, 32767, 32767
IMU, 154085, 0.005890, 0.009279, 0.049193, 0.084143, -0.059469, -10.11900
GPS, 3, 484721200, 1785, 5, 3.40, 35.7712444, -78.6745808, -0.92, 125.64, 0.09, 240.18, 0.050000, 154094
IMU, 154104, -0.008476, 0.007683, -0.080641, 0.034080, -0.683106, -9.580452
IMU, 154124, 0.005890, -0.007215, 0.039615, 0.230755, -0.148217, -9.644088
IMU, 154144, -0.004751, 0.007151, 0.056110, 0.428621, 0.264341, -9.966981
CTUN, 154164, 341, 0, 341, 0.000000, -0.930000, -0.46, 0.00, 0.00, 0, -35
IMU, 154166, -0.014861, 0.008215, -0.097136, 0.144933, -0.896582, -9.555705
ATT, 154184, 0.00, 0.42, 0.00, 0.99, 174.71, 174.71
RCIN, 154184, 1530, 1520, 1345, 1520, 1122, 1500, 1119, 1500
RCOU, 154184, 1438, 1380, 1402, 1416, 1410, 1408, 32767, 32767
IMU, 154185, 0.030367, 0.001298, 0.057175, 0.348759, -0.042679, -9.807891
IMU, 154205, -0.020715, -0.027967, -0.025301, -0.166170, -0.680707, -9.439039
IMU, 154224, -0.026036, 0.019922, 0.011413, 0.838658, 0.685296, -9.619341
IMU, 154244, 0.030899, 0.011940, 0.003432, 0.169964, -1.360712, -9.330623
CTUN, 154265, 341, 0, 340, 0.000000, -0.940000, -0.54, 0.00, 0.00, 0, -35
IMU, 154266, -0.031357, -0.038077, -0.038072, -0.579782, 0.301520, -10.68701
ATT, 154284, 0.00, 0.37, 0.00, 1.00, 174.71, 174.72
RCIN, 154284, 1530, 1519, 1345, 1520, 1122, 1500, 1119, 1500
RCOU, 154284, 1428, 1391, 1344, 1474, 1351, 1467, 32767, 32767
IMU, 154285, -0.001559, 0.075261, 0.036955, 1.971028, 0.517394, -9.147965
GPS, 3, 484721400, 1785, 5, 3.40, 35.7712443, -78.6745809, -0.94, 125.61, 0.05, 240.18, 0.060000, 154294
IMU, 154304, -0.018586, -0.083839, -0.024769, -0.128027, -1.341523, -9.446111
IMU, 154324, -0.031357, -0.018389, 0.013542, -0.452242, -0.927763, -10.91327
IMU, 154344, 0.031431, -0.024242, 0.047065, -1.820621, 0.013687, -9.995263
CTUN, 154364, 200, 0, 200, 0.000000, -0.950000, -0.36, 0.00, 0.00, 0, -34
IMU, 154365, 0.015468, 0.081114, -0.041797, 0.678934, 0.131219, -9.936340
ATT, 154384, 0.00, 0.34, 0.00, 0.97, 174.71, 174.67
RCIN, 154384, 1530, 1520, 1185, 1545, 1122, 1500, 1119, 1500
RCOU, 154384, 1275, 1303, 1231, 1348, 1241, 1337, 32767, 32767
IMU, 154385, -0.011137, 0.047591, -0.076916, 2.843548, 0.374677, -9.120861
IMU, 154405, -0.030825, -0.074261, 0.021523, 1.814880, 2.106469, -9.384831
IMU, 154424, 0.003229, 0.013004, 0.009285, 1.303526, 2.244389, -10.01294
IMU, 154444, -0.031357, -0.027435, 0.048129, 0.913752, -2.815465, -10.13432
CTUN, 154465, 154, 0, 155, 0.000000, -0.950000, -0.33, 0.00, 0.00, 0, -32
IMU, 154466, -0.005283, -0.097141, 0.140184, -1.559580, -7.562301, -11.11242
ATT, 154484, 0.00, 0.37, 0.00, 0.99, 174.71, 174.72
RCIN, 154484, 1530, 1520, 1192, 1526, 1122, 1500, 1119, 1500
RCOU, 154484, 1323, 1232, 1231, 1324, 1294, 1260, 32767, 32767
IMU, 154484, 0.064954, 0.015133, -0.062549, -2.435676, -1.186813, -9.561597
GPS, 3, 484721600, 1785, 5, 3.40, 35.7712443, -78.6745811, -0.95, 125.56, 0.04, 240.18, 0.090000, 154494
IMU, 154504, 0.058037, 0.088032, -0.152476, 0.498947, 8.893317, -8.623560
IMU, 154524, -0.060091, 0.087500, -0.007210, 2.788717, 5.538870, -9.449646
IMU, 154544, -0.071797, -0.033288, 0.074734, 1.090164, -3.839669, -10.65637
CTUN, 154565, 327, 0, 327, 0.000000, -0.950000, -0.43, 0.00, 0.00, 0, -30
IMU, 154566, -0.028696, -0.106187, 0.008221, -0.095844, -7.636658, -9.773717
ATT, 154584, 0.00, 0.35, 0.00, 1.03, 174.71, 174.68
RCIN, 154584, 1530, 1520, 1350, 1521, 1121, 1500, 1119, 1500
RCOU, 154585, 1455, 1372, 1409, 1417, 1449, 1377, 32767, 32767
IMU, 154585, 0.051651, -0.030096, 0.009817, -2.012528, -0.422858, -10.17439
IMU, 154605, 0.006422, 0.132197, -0.077980, -0.375956, 5.871077, -9.509746
IMU, 154625, -0.025504, 0.099206, -0.101925, 2.378680, 1.313731, -8.967664
IMU, 154644, -0.070201, -0.103527, 0.002900, 2.738655, -3.887640, -9.640553
CTUN, 154665, 375, 0, 375, 0.000000, -0.950000, -0.40, 0.00, 0.00, 0, -29
IMU, 154666, -0.079247, -0.131197, 0.146569, -1.274700, -3.559032, -10.00705
ATT, 154685, 0.00, 0.16, 0.00, 1.10, 174.71, 174.61
RCIN, 154685, 1530, 1520, 1375, 1521, 1122, 1500, 1119, 1500
RCOU, 154685, 1466, 1409, 1422, 1453, 1422, 1453, 32767, 32767
IMU, 154685, -0.001559, 0.016729, 0.096019, -4.636048, -0.059469, -11.14542
GPS, 3, 484721800, 1785, 5, 3.40, 35.7712441, -78.6745814, -0.95, 125.50, 0.03, 240.18, 0.090000, 154694
IMU, 154705, 0.037817, 0.065151, -0.075852, -2.856441, 2.328340, -9.956375
IMU, 154724, 0.012275, 0.061426, -0.121613, 0.495371, 0.771646, -9.262274
IMU, 154744, -0.024971, 0.016197, -0.057228, 1.832759, -0.926564, -9.120861
CTUN, 154765, 228, 0, 255, 0.000000, -0.950000, -0.44, 0.00, 0.00, 0, -29
IMU, 154767, -0.023907, 0.003958, -0.023173, 1.599134, -1.140040, -9.138537
ATT, 154784, 0.00, -0.04, 0.00, 1.07, 174.71, 174.75
RCIN, 154785, 1530, 1520, 1245, 1521, 1121, 1500, 1119, 1500
RCOU, 154785, 1307, 1318, 1322, 1303, 1302, 1323, 32767, 32767
IMU, 154785, -0.034549, -0.018921, 0.048661, 1.590790, 2.479452, -8.367839
IMU, 154806, -0.007944, 0.033757, -0.025301, 2.137903, 6.011395, -8.406727
IMU, 154824, -0.042531, 0.049188, 0.003964, 2.735079, 6.733375, -10.25923
IMU, 154845, -0.081375, 0.009812, 0.025248, 1.153338, 3.821470, -9.527423
DU32, 7, 303225
CURR, 154855, 228, 6211, 1317, 0, 5051, 0.000000
CTUN, 154865, 228, 0, 228, 0.000000, -0.950000, -0.55, 0.00, 0.00, 0, -30
IMU, 154867, -0.086164, -0.010408, 0.055046, 1.199825, -2.100681, -10.52792
ATT, 154885, 0.00, 0.13, 0.00, 1.04, 174.71, 174.79
RCIN, 154885, 1530, 1520, 1257, 1521, 1121, 1500, 1119, 1500
RCOU, 154885, 1284, 1365, 1351, 1298, 1293, 1356, 32767, 32767
IMU, 154885, -0.052641, -0.007747, 0.056110, 1.582446, -7.125755, -10.29223
GPS, 3, 484722000, 1785, 5, 3.40, 35.7712441, -78.6745815, -0.95, 125.47, 0.05, 240.18, 0.110000, 154895
IMU, 154906, -0.015393, 0.000234, 0.004496, 1.112811, -9.308483, -8.775578
IMU, 154925, 0.046862, 0.023114, -0.014659, 0.857730, -5.204474, -9.292913
EV, 16
IMU, 154945, 0.060165, 0.034289, 0.015670, -0.950484, -0.264550, -7.685523
CTUN, 154965, 411, 0, 411, 0.000000, -0.960000, -0.40, 0.00, 0.00, 0, -29
IMU, 154967, 0.114973, 0.055041, 0.033230, -2.134109, 4.740135, -9.560419
ATT, 154985, 0.00, 0.05, 0.00, 1.07, 174.71, 174.75
RCIN, 154985, 1529, 1520, 1407, 1521, 1121, 1500, 1119, 1500
RCOU, 154985, 1532, 1405, 1422, 1515, 1484, 1452, 32767, 32767
IMU, 154985, 0.089431, 0.016729, -0.008274, -2.645463, 4.647789, -10.76125
IMU, 155006, 0.011743, 0.043867, -0.050310, -2.066166, 2.000931, -11.50249
IMU, 155024, -0.056898, -0.021582, -0.095008, -0.740698, -1.545404, -10.46075
IMU, 155045, -0.140971, -0.039674, -0.117356, 0.725421, -2.785482, -9.691226
CTUN, 155065, 287, 0, 287, 0.000000, -0.950000, -0.36, 0.00, 0.00, 0, -27
IMU, 155067, -0.158531, -0.029031, -0.058824, -0.253183, -1.431471, -10.21917
ATT, 155085, 0.00, -0.43, 0.00, 1.06, 174.71, 174.62
RCIN, 155085, 1530, 1520, 1242, 1523, 1121, 1500, 1119, 1500
RCOU, 155085, 1323, 1297, 1246, 1374, 1271, 1348, 32767, 32767
IMU, 155085, -0.085632, 0.049188, -0.032219, -0.803872, -1.249177, -10.02590
GPS, 3, 484722200, 1785, 5, 3.40, 35.7712440, -78.6745817, -0.95, 125.44, 0.01, 240.18, 0.080000, 155095
IMU, 155105, 0.025046, -0.016261, 0.035890, -1.576268, -1.114855, -9.750148
IMU, 155125, 0.103798, -0.004022, 0.031633, -2.049479, -1.445862, -10.56681
IMU, 155145, 0.185211, 0.019922, -0.026898, -2.656190, -1.017712, -10.06479
CTUN, 155165, 167, 0, 168, 0.000000, -0.950000, -0.36, 0.00, 0.00, 0, -29
IMU, 155167, 0.244807, 0.039078, -0.089154, -3.166352, -0.744270, -9.706545
ATT, 155185, 0.00, -0.17, 0.00, 1.06, 174.71, 174.66
RCIN, 155185, 1530, 1520, 1182, 1521, 1121, 1500, 1119, 1500
RCOU, 155185, 1458, 1247, 1231, 1475, 1366, 1338, 32767, 32767
IMU, 155186, 0.232569, 0.062490, -0.095008, -3.495335, 0.344695, -9.250489
IMU, 155206, 0.173505, 0.090692, -0.140769, -3.087683, 2.215606, -8.539890
IMU, 155225, 0.112312, 0.132729, -0.147155, -1.408200, 4.151278, -8.942918
IMU, 155245, 0.056972, 0.114105, -0.084365, 0.603840, 5.099926, -10.06950
CTUN, 155266, 134, 0, 134, 0.000000, -0.950000, -0.57, 0.00, 0.00, 0, -28
IMU, 155277, 0.056972, -0.014132, 0.124753, -0.623885, -5.012586, -9.625233
ATT, 155285, 0.00, -0.11, 0.00, 1.10, 174.71, 174.81
RCIN, 155285, 1530, 1520, 1161, 1524, 1122, 1500, 1119, 1500
RCOU, 155285, 1231, 1519, 1432, 1316, 1301, 1447, 32767, 32767
GPS, 3, 484722400, 1785, 5, 3.40, 35.7712439, -78.6745817, -0.95, 125.41, 0.04, 240.18, 0.090000, 155295
IMU, 155296, 0.123486, 0.021518, 0.049193, -1.852804, -2.116272, -8.970020
IMU, 155314, 0.141578, 0.053977, 0.007688, -2.706253, 1.444455, -8.271207
EV, 15
IMU, 155335, 0.166055, 0.030032, -0.000824, -2.858825, 4.702957, -10.74829
IMU, 155355, 0.128807, -0.008279, -0.006145, -3.395210, 5.301408, -10.48903
CTUN, 155364, 0, 0, 0, 0.000000, -0.950000, -0.55, 0.00, 0.00, 0, -28
IMU, 155374, 0.024514, 0.006087, -0.097668, -2.217546, 3.064711, -10.82842
ATT, 155384, 0.00, 0.15, 0.00, 1.14, 174.87, 174.87
RCIN, 155384, 1530, 1520, 1143, 1521, 1122, 1500, 1117, 1500
RCOU, 155384, 1197, 1197, 1197, 1197, 1197, 1197, 32767, 32767
IMU, 155394, 0.003229, -0.002958, -0.112035, 2.180814, -0.768256, -10.49846
IMU, 155414, -0.072861, -0.034353, -0.071063, 4.260798, -3.275997, -8.830965
IMU, 155434, -0.045724, -0.019453, 0.049193, 2.617074, -3.470283, -9.037192
IMU, 155456, -0.031357, -0.015197, 0.091230, -0.325893, -2.910210, -9.711259
CTUN, 155465, 0, 0, 0, 0.000000, -0.960000, -0.61, 0.00, 0.00, 0, -27
IMU, 155474, 0.000569, 0.019922, 0.031633, -1.865916, -0.636333, -9.744255
ATT, 155484, 0.00, 0.18, 0.00, 1.18, 174.78, 174.78
RCIN, 155484, 1530, 1520, 1144, 1521, 1121, 1500, 1117, 1500
RCOU, 155484, 1197, 1197, 1197, 1197, 1197, 1197, 32767, 32767
GPS, 3, 484722600, 1785, 5, 3.40, 35.7712440, -78.6745819, -0.96, 125.39, 0.04, 240.18, 0.090000, 155494
IMU, 155496, 0.037817, 0.068876, -0.036476, 1.208168, 1.112248, -9.711259
IMU, 155515, 0.030367, 0.022582, 0.006624, 1.907853, 0.359086, -8.997125
IMU, 155534, 0.023450, -0.081710, 0.030569, -1.899291, -0.112238, -10.32287
IMU, 155554, 0.003762, 0.033224, -0.025833, -0.925453, 0.692492, -10.76596
CTUN, 155565, 0, 0, 0, 0.000000, -0.970000, -0.49, 0.00, 0.00, 0, -26
IMU, 155575, 0.013872, 0.067812, -0.060953, 2.029434, -0.469630, -9.338873
ATT, 155584, 0.00, 0.28, 0.00, 1.21, 174.72, 174.72
RCIN, 155584, 1530, 1520, 1144, 1521, 1121, 1500, 1117, 1500
RCOU, 155584, 1197, 1197, 1197, 1197, 1197, 1197, 32767, 32767
IMU, 155594, -0.021247, -0.055105, -0.002421, 0.737341, -1.408684, -9.316482
IMU, 155614, -0.007944, -0.034353, -0.024237, -0.097036, 0.231960, -9.442575
IMU, 155634, 0.017596, 0.045463, 0.012477, 1.091356, 0.652915, -9.839709
IMU, 155655, 0.009083, -0.021582, 0.024184, -0.161402, -0.946952, -9.938698
CTUN, 155665, 0, 0, 0, 0.000000, -0.970000, -0.47, 0.00, 0.00, 0, -26
IMU, 155675, 0.017596, -0.029564, -0.042329, -0.039821, -0.362892, -9.712438
ATT, 155684, 0.00, 0.31, 0.00, 1.20, 174.71, 174.71
RCIN, 155684, 1530, 1520, 1142, 1521, 1122, 1500, 1116, 1500
RCOU, 155684, 1197, 1197, 1197, 1197, 1197, 1197, 32767, 32767
GPS, 3, 484722800, 1785, 5, 3.40, 35.7712437, -78.6745823, -0.97, 125.35, 0.03, 240.18, 0.099999, 155694
IMU, 155696, -0.013797, 0.034821, 0.020991, 0.852962, -0.168606, -9.652337
IMU, 155714, -0.006880, 0.007683, 0.006092, -0.636997, -0.175801, -9.361263
IMU, 155734, 0.030367, -0.016261, -0.021577, 0.124669, -0.209382, -9.759576
IMU, 155754, -0.013265, 0.038013, 0.041211, 0.453653, 0.246352, -10.06008
CTUN, 155765, 0, 0, 0, 0.000000, -0.970000, -0.59, 0.00, 0.00, 0, -26
IMU, 155775, 0.037817, -0.023710, -0.052439, 0.105598, -1.092068, -9.477928
ATT, 155784, 0.00, 0.34, 0.00, 1.23, 174.70, 174.70
RCIN, 155784, 1529, 1520, 1142, 1521, 1122, 1500, 1116, 1500
RCOU, 155784, 1197, 1197, 1197, 1197, 1197, 1197, 32767, 32767
IMU, 155795, -0.038806, -0.025307, 0.038019, 0.271282, 0.386670, -10.08129
IMU, 155815, 0.026642, -0.015729, -0.044457, -0.237688, -1.008117, -9.606379
IMU, 155835, -0.019118, -0.010940, 0.048661, 0.355911, 0.535384, -10.09661
DU32, 7, 303449
CURR, 155855, 0, 7211, 1325, 0, 5051, 0.000000
IMU, 155856, 0.031963, 0.014068, -0.055099, 0.302273, -0.801837, -9.535672
CTUN, 155865, 0, 0, 0, 0.000000, -0.970000, -0.50, 0.00, 0.00, 0, -26
IMU, 155875, -0.006880, -0.009343, 0.036422, 0.774292, 0.207974, -9.886847
ATT, 155884, 0.00, 0.36, 0.00, 1.20, 174.72, 174.72
RCIN, 155885, 1530, 1520, 1142, 1521, 1122, 1500, 1117, 1500
RCOU, 155885, 1197, 1197, 1197, 1197, 1197, 1197, 32767, 32767
GPS, 3, 484723000, 1785, 5, 3.40, 35.7712436, -78.6745826, -0.98, 125.39, 0.00, 240.18, 0.070000, 155894
IMU, 155895, 0.014404, -0.003490, -0.023705, 0.034080, -0.292134, -9.580452
IMU, 155915, 0.000037, -0.004554, -0.014659, 0.509675, -0.294532, -9.804356
IMU, 155934, 0.008018, -0.007747, 0.060899, -0.060085, 0.267939, -9.682977
IMU, 155955, -0.012201, -0.012536, -0.042329, 0.360679, -0.054672, -9.851493
CTUN, 155965, 0, 0, 0, 0.000000, -0.970000, -0.57, 0.00, 0.00, 0, -25
IMU, 155974, 0.018128, 0.019390, -0.011466, 0.211683, -0.226172, -9.713616
ATT, 155984, 0.00, 0.39, 0.00, 1.21, 174.68, 174.68
RCIN, 155984, 1530, 1520, 1142, 1521, 1122, 1500, 1117, 1500
RCOU, 155985, 1197, 1197, 1197, 1197, 1197, 1197, 32767, 32767
IMU, 155994, 0.003229, -0.001362, 0.024716, 0.389286, -0.317319, -9.712438
IMU, 156014, -0.011669, -0.017857, -0.019980, 0.080567, -0.370088, -9.919843
IMU, 156034, 0.001633, 0.013004, 0.012477, 0.123478, -0.179399, -9.666479
IMU, 156057, 0.012807, -0.002958, 0.004496, 0.285585, -0.304127, -9.704188
CTUN, 156065, 0, 0, 0, 0.000000, -0.980000, -0.50, 0.00, 0.00, 0, -25
IMU, 156076, -0.013265, -0.003490, -0.010934, 0.135397, -0.238165, -9.844423
ATT, 156085, 0.00, 0.38, 0.00, 1.20, 174.68, 174.68
RCIN, 156085, 1530, 1520, 1142, 1521, 1122, 1500, 1117, 1500
RCOU, 156085, 1197, 1197, 1197, 1197, 1197, 1197, 32767, 32767
GPS, 3, 484723200, 1785, 5, 3.40, 35.7712434, -78.6745831, -0.98, 125.36, 0.02, 240.18, 0.040000, 156094
IMU, 156095, 0.005358, -0.000830, 0.013010, 0.276049, -0.282539, -9.596951
IMU, 156115, -0.002091, 0.001830, -0.007742, 0.301081, -0.368889, -9.758396
IMU, 156135, -0.014329, -0.005086, 0.002367, 0.296313, -0.159011, -9.639375
IMU, 156155, 0.004294, 0.000234, 0.006624, 0.225987, -0.172203, -9.553349
CTUN, 156165, 0, 0, 0, 0.000000, -0.980000, -0.46, 0.00, 0.00, 0, -24
IMU, 156175, 0.001101, -0.000297, -0.006145, 0.100830, -0.226172, -9.844423
ATT, 156185, 0.00, 0.38, 0.00, 1.21, 174.68, 174.68
RCIN, 156185, 1530, 1520, 1143, 1521, 1122, 1500, 1117, 1500
RCOU, 156185, 1197, 1197, 1197, 1197, 1197, 1197, 32767, 32767
IMU, 156194, -0.001026, -0.014664, 0.001835, 0.268898, -0.229770, -9.620520
IMU, 156215, -0.004219, -0.002958, -0.006145, 0.142549, -0.296931, -9.793750
IMU, 156235, -0.002623, -0.002426, -0.001888, 0.255786, -0.210581, -9.850315
IMU, 156256, 0.000037, -0.017325, 0.002367, 0.117518, -0.137424, -9.594593
CTUN, 156265, 0, 0, 0, 0.000000, -0.970000, -0.38, 0.00, 0.00, 0, -24
IMU, 156276, -0.002623, 0.005023, -0.004017, 0.162812, -0.061868, -9.840887
ATT, 156285, 0.00, 0.38, 0.00, 1.21, 174.67, 174.67
RCIN, 156285, 1530, 1520, 1143, 1521, 1121, 1500, 1117, 1500
RCOU, 156285, 1197, 1197, 1197, 1197, 1197, 1197, 32767, 32767
GPS, 3, 484723400, 1785, 5, 3.40, 35.7712434, -78.6745835, -0.97, 125.32, 0.02, 240.18, 0.040000, 156295
IMU, 156296, 0.010679, 0.006619, -0.000292, 0.303465, -0.215378, -9.733649
IMU, 156314, 0.008551, 0.006619, 0.004496, 0.218835, -0.191392, -9.811427
IMU, 156336, -0.002623, 0.010876, -0.008274, 0.198571, -0.220176, -9.748969
IMU, 156356, 0.002165, -0.009343, 0.005560, 0.200955, -0.236966, -9.734828
CTUN, 156365, 0, 0, 0, 0.000000, -0.960000, -0.44, 0.00, 0.00, 0, -23
IMU, 156375, -0.002091, -0.008811, -0.005081, 0.184268, -0.272945, -9.725400
ATT, 156385, 0.00, 0.39, 0.00, 1.21, 174.67, 174.67
RCIN, 156385, 1530, 1520, 1142, 1521, 1122, 1500, 1116, 1500
RCOU, 156385, 1197, 1197, 1197, 1197, 1197, 1197, 32767, 32767
IMU, 156395, -0.001026, 0.008747, 0.000771, 0.224795, -0.277742, -9.725400
IMU, 156415, 0.001101, 0.001298, 0.002900, 0.255786, -0.214179, -9.766645
IMU, 156435, -0.001559, -0.005086, -0.005081, 0.165196, -0.222574, -9.671192
IMU, 156456, -0.002623, -0.001362, 0.004496, 0.221219, -0.171004, -9.760754
CTUN, 156466, 0, 0, 0, 0.000000, -0.960000, -0.41, 0.00, 0.00, 0, -23
IMU, 156476, 0.000569, -0.004022, -0.001356, 0.233139, -0.212980, -9.734828
ATT, 156485, 0.00, 0.39, 0.00, 1.22, 174.66, 174.66
RCIN, 156485, 1530, 1520, 1142, 1521, 1122, 1500, 1116, 1500
RCOU, 156486, 1197, 1197, 1197, 1197, 1197, 1197, 32767, 32767
IMU, 156496, 0.002697, 0.002362, 0.000239, 0.211683, -0.226172, -9.733649
GPS, 3, 484723600, 1785, 5, 3.40, 35.7712432, -78.6745838, -0.95, 125.28, 0.01, 240.18, 0.010000, 156515
IMU, 156516, 0.001633, 0.006619, 0.000771, 0.222411, -0.216578, -9.738363
IMU, 156535, -0.001026, -0.002958, -0.003485, 0.192612, -0.210581, -9.700653
