1

ArduCopter V3.1.2 ()
Free RAM: 1274
APM 2
FMT, 128, 89, FMT, BBnNZ, Type,Length,Name,Format
FMT, 129, 23, PARM, Nf, Name,Value
FMT, 130, 45, GPS, BIHBcLLeeEefI, Status,TimeMS,Week,NSats,HDop,Lat,Lng,RelAlt,Alt,Spd,GCrs,VZ,T
FMT, 131, 31, IMU, Iffffff, TimeMS,GyrX,GyrY,GyrZ,AccX,AccY,AccZ
FMT, 135, 31, IMU2, Iffffff, TimeMS,GyrX,GyrY,GyrZ,AccX,AccY,AccZ
FMT, 132, 67, MSG, Z, Message
FMT, 133, 23, RCIN, Ihhhhhhhh, TimeMS,Chan1,Chan2,Chan3,Chan4,Chan5,Chan6,Chan7,Chan8
FMT, 134, 23, RCOU, Ihhhhhhhh, TimeMS,Chan1,Chan2,Chan3,Chan4,Chan5,Chan6,Chan7,Chan8
FMT, 136, 17, BARO, Iffc, TimeMS,Alt,Press,Temp
FMT, 25, 25, ATUN, BBfffff, Axis,TuneStep,RateMin,RateMax,RPGain,RDGain,SPGain
FMT, 26, 9, ATDE, cf, Angle,Rate
FMT, 9, 23, CURR, IhIhhhf, TimeMS,ThrOut,ThrInt,Volt,Curr,Vcc,CurrTot
FMT, 12, 20, OF, hhBccee, Dx,Dy,SQual,X,Y,Roll,Pitch
FMT, 5, 47, NTUN, Iffffffffff, TimeMS,DPosX,DPosY,PosX,PosY,DVelX,DVelY,VelX,VelY,DAccX,DAccY
FMT, 4, 33, CTUN, Ihhhffecchh, TimeMS,ThrIn,AngBst,ThrOut,DAlt,Alt,BarAlt,DSAlt,SAlt,DCRt,CRt
FMT, 15, 25, MAG, Ihhhhhhhhh, TimeMS,MagX,MagY,MagZ,OfsX,OfsY,OfsZ,MOfsX,MOfsY,MOfsZ
FMT, 27, 25, MAG2, Ihhhhhhhhh, TimeMS,MagX,MagY,MagZ,OfsX,OfsY,OfsZ,MOfsX,MOfsY,MOfsZ
FMT, 6, 19, PM, BBHHIhBHB, RenCnt,RenBlw,NLon,NLoop,MaxT,PMT,I2CErr,INSErr,INAVErr
FMT, 8, 20, CMD, BBBBBeLL, CTot,CNum,CId,COpt,Prm1,Alt,Lat,Lng
FMT, 1, 19, ATT, IccccCC, TimeMS,DesRoll,Roll,DesPitch,Pitch,DesYaw,Yaw
FMT, 3, 6, MODE, Mh, Mode,ThrCrs
FMT, 10, 3, STRT, , 
FMT, 13, 4, EV, B, Id
FMT, 20, 6, D16, Bh, Id,Value
FMT, 21, 6, DU16, BH, Id,Value
FMT, 22, 8, D32, Bi, Id,Value
FMT, 23, 8, DU32, BI, Id,Value
FMT, 24, 8, DFLT, Bf, Id,Value
FMT, 18, 27, CAM, IHLLeccC, GPSTime,GPSWeek,Lat,Lng,Alt,Roll,Pitch,Yaw
FMT, 19, 5, ERR, BB, Subsys,ECode
MSG, ArduCopter V3.1.2 ()
MODE, STABILIZE, 535
D32, 9, 20684
CMD, 5, 0, 16, 0, 0, 0.00, 35.7713199, -78.6744728
EV, 10
CTUN, 185364, 0, 0, 0, 0.000000, 0.580000, -0.07, 0.00, 0.00, 0, -2
IMU, 185366, -0.000329, -0.000053, -0.000569, -0.255124, 0.272207, -9.741199
GPS, 3, 483577600, 1785, 6, 2.96, 35.7713203, -78.6744728, 0.58, 115.49, 0.03, 0.00, 0.050000, 185375
ATT, 185385, 0.00, -5.81, 0.00, -3.83, 206.84, 206.84
RCIN, 185385, 1527, 1524, 1142, 1923, 1124, 1500, 1117, 1500
RCOU, 185385, 1197, 1197, 1197, 1197, 1197, 1197, 32767, 32767
IMU, 185392, 0.000734, -0.000053, -0.000037, -0.232507, 0.272207, -9.724710
IMU, 185410, -0.000329, -0.000053, 0.000494, -0.245601, 0.276993, -9.745909
GPS, 3, 483577600, 1785, 6, 2.96, 35.7713235, -78.6744733, 0.58, 116.37, 0.02, 0.00, -0.020000, 185429
IMU, 185430, -0.000329, 0.000478, -0.000037, -0.240839, 0.284173, -9.774173
IMU, 185449, 0.000734, 0.000478, -0.000037, -0.224174, 0.286566, -9.732955
CTUN, 185460, 0, 0, 0, 0.000000, 0.590000, -0.10, 0.00, 0.00, 0, -2
IMU, 185469, 0.000734, 0.001011, -0.000037, -0.227745, 0.272207, -9.757685
ATT, 185480, 0.00, -5.82, 0.00, -3.82, 206.84, 206.84
RCIN, 185480, 1527, 1523, 1143, 1923, 1123, 1500, 1117, 1500
RCOU, 185480, 1197, 1197, 1197, 1197, 1197, 1197, 32767, 32767
IMU, 185489, -0.000329, 0.001011, -0.000037, -0.236078, 0.278190, -9.738843
IMU, 185508, 0.000734, 0.001011, -0.000569, -0.240839, 0.271011, -9.765928
IMU, 185529, -0.000329, 0.000478, 0.000494, -0.238459, 0.286566, -9.747087
IMU, 185549, 0.000734, 0.001011, -0.000037, -0.245601, 0.273404, -9.737665
CTUN, 185560, 0, 0, 0, 0.000000, 0.540000, -0.13, 0.00, 0.00, 0, -3
IMU, 185569, -0.000329, 0.000478, -0.000569, -0.238459, 0.278190, -9.745909
ATT, 185580, 0.00, -5.83, 0.00, -3.83, 206.85, 206.85
RCIN, 185581, 1527, 1524, 1142, 1923, 1124, 1500, 1117, 1500
RCOU, 185581, 1197, 1197, 1197, 1197, 1197, 1197, 32767, 32767
IMU, 185590, -0.000329, -0.000053, 0.000494, -0.257505, 0.261438, -9.742375
IMU, 185610, -0.000329, -0.000053, -0.000037, -0.250363, 0.271011, -9.755330
GPS, 3, 483579400, 1785, 6, 2.96, 35.7713237, -78.6744733, 0.51, 116.39, 0.03, 0.00, -0.030000, 185629
IMU, 185630, 0.000734, 0.001011, 0.000494, -0.230126, 0.279386, -9.760040
IMU, 185651, 0.000734, -0.000053, -0.000569, -0.215841, 0.274600, -9.764751
CTUN, 185660, 0, 0, 0, 0.000000, 0.500000, -0.01, 0.00, 0.00, 0, -4
IMU, 185669, -0.000329, -0.000053, -0.000569, -0.251553, 0.269814, -9.749441
ATT, 185680, 0.00, -5.85, 0.00, -3.84, 206.85, 206.85
RCIN, 185681, 1527, 1523, 1143, 1923, 1123, 1500, 1117, 1500
RCOU, 185681, 1197, 1197, 1197, 1197, 1197, 1197, 32767, 32767
IMU, 185689, 0.000734, 0.000478, 0.000494, -0.245601, 0.271011, -9.724710
IMU, 185709, 0.000202, 0.001011, 0.000494, -0.239649, 0.268618, -9.745909
IMU, 185729, -0.000329, -0.000053, 0.000494, -0.231316, 0.278190, -9.740020
IMU, 185750, -0.000329, 0.001011, 0.001026, -0.245601, 0.268618, -9.736487
CTUN, 185760, 0, 0, 0, 0.000000, 0.460000, -0.10, 0.00, 0.00, 0, -4
IMU, 185769, 0.001266, -0.000053, -0.000569, -0.234888, 0.272207, -9.725888
ATT, 185780, 0.00, -5.85, 0.00, -3.83, 206.85, 206.85
RCIN, 185780, 1527, 1524, 1142, 1923, 1123, 1500, 1117, 1500
RCOU, 185781, 1197, 1197, 1197, 1197, 1197, 1197, 32767, 32767
IMU, 185790, 0.000202, -0.000053, 0.000494, -0.243220, 0.262635, -9.762396
IMU, 185810, -0.000329, -0.000053, 0.001026, -0.232507, 0.263831, -9.745909
GPS, 3, 483579600, 1785, 6, 2.96, 35.7713239, -78.6744734, 0.43, 116.42, 0.03, 0.00, -0.040000, 185830
IMU, 185830, 0.000202, 0.000478, -0.000037, -0.239649, 0.276993, -9.756508
IMU, 185850, -0.000329, 0.000478, 0.000494, -0.242030, 0.279386, -9.763573
CTUN, 185861, 0, 0, 0, 0.000000, 0.420000, -0.03, 0.00, 0.00, 0, -5
IMU, 185870, 0.000734, -0.000053, 0.000494, -0.227745, 0.280583, -9.730598
ATT, 185881, 0.00, -5.84, 0.00, -3.82, 206.85, 206.85
RCIN, 185882, 1527, 1523, 1143, 1923, 1124, 1500, 1117, 1500
RCOU, 185882, 1197, 1197, 1197, 1197, 1197, 1197, 32767, 32767
IMU, 185890, -0.000329, -0.000053, 0.000494, -0.230126, 0.266224, -9.735310
IMU, 185909, 0.000202, -0.000053, -0.000037, -0.240839, 0.292548, -9.743553
IMU, 185930, -0.000329, 0.000478, -0.000037, -0.246791, 0.286566, -9.755330
DU32, 7, 303705
CURR, 185950, 0, 0, 1360, 0, 5166, 0.000000
IMU, 185951, 0.000202, 0.000478, -0.000037, -0.236078, 0.276993, -9.738843
CTUN, 185961, 0, 0, 0, 0.000000, 0.390000, 0.10, 0.00, 0.00, 0, -6
IMU, 185970, -0.000329, 0.000478, 0.001026, -0.250363, 0.274600, -9.724710
ATT, 185981, 0.00, -5.83, 0.00, -3.80, 206.86, 206.86
RCIN, 185981, 1527, 1524, 1142, 1923, 1123, 1500, 1117, 1500
RCOU, 185981, 1197, 1197, 1197, 1197, 1197, 1197, 32767, 32767
PM, 0, 0, 8, 1000, 1792259, 22, 0, 0, 131
IMU, 185991, 0.000202, -0.000053, -0.000569, -0.232507, 0.262635, -9.736487
IMU, 186011, 0.000734, -0.000053, -0.000569, -0.249172, 0.275797, -9.765928
GPS, 3, 483579800, 1785, 6, 2.96, 35.7713243, -78.6744735, 0.37, 116.49, 0.04, 0.00, 0.010000, 186030
IMU, 186030, 0.000734, -0.000053, 0.000494, -0.237268, 0.278190, -9.749441
IMU, 186050, 0.000202, -0.000053, -0.000037, -0.239649, 0.254259, -9.769462
CTUN, 186061, 0, 0, 0, 0.000000, 0.360000, 0.06, 0.00, 0.00, 0, -6
IMU, 186070, 0.000202, 0.001011, 0.000494, -0.234888, 0.255456, -9.770639
ATT, 186080, 0.00, -5.82, 0.00, -3.79, 206.86, 206.86
RCIN, 186081, 1527, 1523, 1143, 1923, 1124, 1500, 1117, 1500
RCOU, 186081, 1197, 1197, 1197, 1197, 1197, 1197, 32767, 32767
IMU, 186091, -0.000329, -0.000053, -0.000569, -0.246791, 0.261438, -9.742375
IMU, 186110, 0.000202, -0.000053, -0.000037, -0.237268, 0.269814, -9.767106
IMU, 186130, 0.000734, -0.000053, 0.001026, -0.232507, 0.259045, -9.725888
IMU, 186151, 0.000202, -0.000053, -0.000569, -0.224174, 0.282976, -9.742375
CTUN, 186161, 0, 0, 0, 0.000000, 0.340000, -0.05, 0.00, 0.00, 0, -7
IMU, 186171, 0.000202, 0.000478, -0.000569, -0.237268, 0.280583, -9.757685
ATT, 186181, 0.00, -5.82, 0.00, -3.79, 206.86, 206.86
RCIN, 186181, 1527, 1524, 1142, 1923, 1123, 1500, 1117, 1500
RCOU, 186181, 1197, 1197, 1197, 1197, 1197, 1197, 32767, 32767
IMU, 186191, -0.000329, 0.000478, -0.000037, -0.239649, 0.265028, -9.740020
GPS, 3, 483580000, 1785, 6, 2.96, 35.7713240, -78.6744733, 0.32, 116.49, 0.21, 0.00, 0.050000, 186211
IMU, 186212, 0.000202, -0.000053, -0.001101, -0.243220, 0.267421, -9.747087
IMU, 186231, -0.000862, -0.000053, -0.000037, -0.233697, 0.271011, -9.755330
IMU, 186251, -0.000329, 0.001011, -0.000037, -0.245601, 0.291352, -9.752975
CTUN, 186261, 0, 0, 0, 0.000000, 0.310000, -0.03, 0.00, 0.00, 0, -7
IMU, 186270, 0.000202, -0.000053, -0.000037, -0.232507, 0.263831, -9.731777
ATT, 186281, 0.00, -5.86, 0.00, -3.80, 206.86, 206.86
RCIN, 186281, 1527, 1523, 1143, 1923, 1124, 1500, 1117, 1500
RCOU, 186281, 1197, 1197, 1197, 1197, 1197, 1197, 32767, 32767
IMU, 186290, 0.000734, -0.000053, -0.000037, -0.245601, 0.285369, -9.732955
IMU, 186310, 0.000202, -0.000053, 0.001026, -0.227745, 0.257849, -9.756508
IMU, 186331, -0.000329, -0.000053, -0.000037, -0.232507, 0.269814, -9.758862
IMU, 186351, -0.000329, -0.000053, -0.000037, -0.230126, 0.250669, -9.765928
CTUN, 186361, 0, 0, 0, 0.000000, 0.280000, 0.00, 0.00, 0.00, 0, -8
IMU, 186371, -0.000329, -0.000053, 0.000494, -0.236078, 0.281779, -9.757685
ATT, 186381, 0.00, -5.92, 0.00, -3.83, 206.87, 206.87
RCIN, 186381, 1527, 1524, 1142, 1923, 1123, 1500, 1117, 1500
RCOU, 186382, 1197, 1197, 1197, 1197, 1197, 1197, 32767, 32767
IMU, 186392, 0.000202, -0.000053, -0.000037, -0.247982, 0.278190, -9.761218
IMU, 186412, 0.000734, -0.000053, -0.000037, -0.247982, 0.271011, -9.790659
GPS, 3, 483580200, 1785, 6, 2.96, 35.7713251, -78.6744740, 0.26, 116.72, 0.18, 0.00, -0.050000, 186430
IMU, 186432, -0.000329, -0.000053, -0.000037, -0.253934, 0.269814, -9.772994
IMU, 186452, 0.000734, 0.001011, 0.000494, -0.244411, 0.276993, -9.758862
CTUN, 186462, 0, 0, 0, 0.000000, 0.250000, 0.00, 0.00, 0.00, 0, -8
IMU, 186471, 0.000202, 0.000478, -0.000037, -0.227745, 0.268618, -9.763573
ATT, 186481, 0.00, -5.92, 0.00, -3.82, 206.87, 206.87
RCIN, 186481, 1527, 1523, 1143, 1923, 1124, 1500, 1117, 1500
RCOU, 186481, 1197, 1197, 1197, 1197, 1197, 1197, 32767, 32767
IMU, 186491, -0.000329, -0.000053, -0.000037, -0.232507, 0.296138, -9.787126
IMU, 186511, -0.000329, -0.000053, -0.000037, -0.250363, 0.271011, -9.769462
IMU, 186531, -0.000329, -0.000053, -0.000037, -0.255124, 0.278190, -9.745909
IMU, 186552, 0.000734, -0.000053, -0.000037, -0.271789, 0.268618, -9.752975
CTUN, 186562, 0, 0, 0, 0.000000, 0.230000, -0.07, 0.00, 0.00, 0, -8
IMU, 186571, -0.000329, 0.000478, -0.000037, -0.234888, 0.267421, -9.760040
ATT, 186581, 0.00, -5.85, 0.00, -3.75, 206.87, 206.87
RCIN, 186581, 1527, 1524, 1142, 1923, 1123, 1500, 1117, 1500
RCOU, 186582, 1197, 1197, 1197, 1197, 1197, 1197, 32767, 32767
IMU, 186592, 0.000202, -0.000053, -0.000037, -0.247982, 0.268618, -9.743553
IMU, 186612, -0.000329, 0.001011, -0.000037, -0.243220, 0.262635, -9.747087
GPS, 3, 483580400, 1785, 6, 2.96, 35.7713260, -78.6744746, 0.20, 116.93, 0.24, 0.00, -0.090000, 186631
IMU, 186632, 0.000734, -0.000053, -0.000037, -0.247982, 0.274600, -9.732955
IMU, 186652, -0.000329, -0.000053, -0.000037, -0.237268, 0.291352, -9.723534
CTUN, 186662, 0, 0, 0, 0.000000, 0.200000, -0.09, 0.00, 0.00, 0, -9
IMU, 186671, -0.000329, -0.000053, 0.000494, -0.249172, 0.279386, -9.757685
ATT, 186681, 0.00, -5.79, 0.00, -3.70, 206.87, 206.87
RCIN, 186681, 1527, 1524, 1142, 1926, 1124, 1500, 1117, 1500
RCOU, 186682, 1197, 1197, 1197, 1197, 1197, 1197, 32767, 32767
IMU, 186691, -0.000329, -0.000053, 0.000494, -0.233697, 0.269814, -9.755330
IMU, 186711, -0.000329, -0.000053, 0.001026, -0.240839, 0.272207, -9.749441
IMU, 186731, -0.000329, 0.000478, -0.000569, -0.233697, 0.280583, -9.745909
IMU, 186752, -0.000329, -0.000053, -0.000037, -0.244411, 0.269814, -9.741199
CTUN, 186762, 0, 0, 0, 0.000000, 0.170000, -0.02, 0.00, 0.00, 0, -9
IMU, 186772, -0.000329, -0.000053, -0.000037, -0.247982, 0.278190, -9.751797
ATT, 186782, 0.00, -5.77, 0.00, -3.70, 206.87, 206.87
RCIN, 186782, 1527, 1523, 1143, 1923, 1123, 1500, 1117, 1500
RCOU, 186782, 1197, 1197, 1197, 1197, 1197, 1197, 32767, 32767
IMU, 186793, 0.000202, -0.000053, -0.000037, -0.244411, 0.260242, -9.776527
IMU, 186812, -0.000329, -0.000053, -0.000037, -0.240839, 0.285369, -9.768284
GPS, 3, 483580600, 1785, 6, 2.96, 35.7713261, -78.6744746, 0.15, 117.01, 0.06, 0.00, -0.060000, 186831
IMU, 186832, -0.000329, -0.000053, -0.000037, -0.243220, 0.285369, -9.738843
IMU, 186852, 0.000734, -0.000053, -0.000037, -0.224174, 0.274600, -9.762396
CTUN, 186862, 0, 0, 0, 0.000000, 0.150000, 0.00, 0.00, 0.00, 0, -9
IMU, 186871, -0.000329, -0.000053, -0.000037, -0.238459, 0.276993, -9.761218
ATT, 186881, 0.00, -5.79, 0.00, -3.69, 206.87, 206.87
RCIN, 186882, 1527, 1524, 1142, 1923, 1124, 1500, 1117, 1500
RCOU, 186882, 1197, 1197, 1197, 1197, 1197, 1197, 32767, 32767
IMU, 186892, 0.000734, 0.000478, 0.000494, -0.213461, 0.266224, -9.751797
IMU, 186911, 0.000734, 0.000478, 0.000494, -0.230126, 0.267421, -9.761218
IMU, 186932, 0.000734, -0.000053, -0.000037, -0.238459, 0.272207, -9.750620
DU32, 7, 303705
CURR, 186952, 0, 0, 1355, 0, 5143, 0.000000
IMU, 186954, 0.000202, 0.000478, -0.000037, -0.245601, 0.285369, -9.757685
CTUN, 186962, 0, 0, 0, 0.000000, 0.130000, -0.02, 0.00, 0.00, 0, -10
IMU, 186972, -0.000329, -0.000053, -0.000569, -0.250363, 0.287762, -9.748263
ATT, 186982, 0.00, -5.86, 0.00, -3.69, 206.88, 206.88
RCIN, 186982, 1529, 1523, 1143, 1923, 1123, 1500, 1117, 1500
RCOU, 186982, 1197, 1197, 1197, 1197, 1197, 1197, 32767, 32767
IMU, 186992, -0.000329, 0.001011, -0.000037, -0.251553, 0.272207, -9.745909
GPS, 3, 483580800, 1785, 6, 2.96, 35.7713266, -78.6744749, 0.11, 117.10, 0.13, 0.00, -0.099999, 187012
IMU, 187013, -0.000329, -0.000053, -0.000037, -0.252743, 0.276993, -9.742375
IMU, 187031, -0.000329, -0.000053, -0.000037, -0.230126, 0.274600, -9.729422
IMU, 187052, -0.000329, -0.000053, 0.000494, -0.239649, 0.257849, -9.764751
CTUN, 187062, 0, 0, 0, 0.000000, 0.110000, -0.05, 0.00, 0.00, 0, -10
IMU, 187072, 0.000202, -0.000053, -0.000037, -0.240839, 0.262635, -9.768284
ATT, 187082, 0.00, -5.87, 0.00, -3.68, 206.88, 206.88
RCIN, 187082, 1528, 1524, 1142, 1923, 1123, 1500, 1117, 1500
RCOU, 187082, 1197, 1197, 1197, 1197, 1197, 1197, 32767, 32767
IMU, 187092, -0.000329, -0.000053, 0.000494, -0.236078, 0.268618, -9.741199
IMU, 187111, 0.000202, -0.000053, -0.000037, -0.233697, 0.285369, -9.742375
IMU, 187132, 0.000734, 0.000478, -0.000037, -0.234888, 0.269814, -9.755330
IMU, 187153, -0.000329, -0.000053, 0.001026, -0.231316, 0.269814, -9.744731
CTUN, 187163, 0, 0, 0, 0.000000, 0.080000, -0.07, 0.00, 0.00, 0, -10
IMU, 187172, -0.000329, -0.000585, -0.000037, -0.226555, 0.276993, -9.738843
ATT, 187182, 0.00, -5.83, 0.00, -3.67, 206.89, 206.89
RCIN, 187182, 1527, 1523, 1143, 1923, 1124, 1500, 1117, 1500
RCOU, 187183, 1197, 1197, 1197, 1197, 1197, 1197, 32767, 32767
IMU, 187193, 0.000202, -0.000053, -0.000037, -0.243220, 0.257849, -9.758862
IMU, 187213, -0.000329, -0.000053, -0.000569, -0.231316, 0.272207, -9.747087
GPS, 3, 483581000, 1785, 6, 2.96, 35.7713271, -78.6744752, 0.07, 117.13, 0.23, 0.00, -0.110000, 187231
IMU, 187232, -0.000329, -0.000053, -0.000037, -0.236078, 0.266224, -9.756508
IMU, 187252, -0.000862, -0.000053, -0.000037, -0.244411, 0.271011, -9.751797
CTUN, 187263, 0, 0, 0, 0.000000, 0.060000, -0.10, 0.00, 0.00, 0, -11
IMU, 187272, 0.000202, -0.001117, 0.000494, -0.240839, 0.280583, -9.764751
ATT, 187282, 0.00, -5.80, 0.00, -3.65, 206.89, 206.89
RCIN, 187282, 1527, 1524, 1142, 1923, 1123, 1500, 1117, 1500
RCOU, 187283, 1197, 1197, 1197, 1197, 1197, 1197, 32767, 32767
IMU, 187292, -0.000329, 0.000478, -0.000037, -0.246791, 0.272207, -9.730598
IMU, 187312, 0.000202, -0.000053, -0.000037, -0.243220, 0.280583, -9.752975
IMU, 187333, 0.000202, -0.000053, -0.000037, -0.243220, 0.280583, -9.743553
IMU, 187353, -0.000329, -0.000053, -0.000037, -0.231316, 0.286566, -9.742375
CTUN, 187363, 0, 0, 0, 0.000000, 0.040000, -0.03, 0.00, 0.00, 0, -11
IMU, 187372, 0.000202, -0.000053, -0.000037, -0.242030, 0.265028, -9.765928
ATT, 187382, 0.00, -5.78, 0.00, -3.62, 206.89, 206.89
RCIN, 187383, 1527, 1523, 1143, 1923, 1124, 1500, 1117, 1500
RCOU, 187383, 1197, 1197, 1197, 1197, 1197, 1197, 32767, 32767
IMU, 187393, -0.000329, -0.000053, -0.000037, -0.237268, 0.259045, -9.744731
IMU, 187414, -0.000329, 0.000478, -0.000037, -0.245601, 0.280583, -9.741199
GPS, 3, 483581200, 1785, 6, 2.96, 35.7713271, -78.6744754, 0.03, 117.19, 0.04, 0.00, -0.140000, 187432
IMU, 187433, -0.000329, -0.000053, -0.001101, -0.245601, 0.280583, -9.757685
IMU, 187453, 0.000202, 0.001011, -0.000037, -0.240839, 0.276993, -9.736487
CTUN, 187463, 0, 0, 0, 0.000000, 0.020000, -0.08, 0.00, 0.00, 0, -11
IMU, 187472, 0.000734, 0.000478, -0.000037, -0.239649, 0.282976, -9.769462
ATT, 187482, 0.00, -5.79, 0.00, -3.61, 206.89, 206.89
RCIN, 187482, 1527, 1524, 1142, 1923, 1123, 1500, 1117, 1500
RCOU, 187483, 1197, 1197, 1197, 1197, 1197, 1197, 32767, 32767
IMU, 187493, -0.000329, -0.000053, 0.000494, -0.246791, 0.268618, -9.745909
IMU, 187513, -0.000329, -0.000053, -0.000037, -0.231316, 0.275797, -9.763573
IMU, 187532, 0.000202, 0.000478, -0.000037, -0.238459, 0.271011, -9.762396
IMU, 187553, -0.000329, -0.000053, 0.001026, -0.234888, 0.282976, -9.789482
CTUN, 187563, 0, 0, 0, 0.000000, 0.000000, -0.05, 0.00, 0.00, 0, -11
IMU, 187574, 0.000734, -0.000053, 0.001026, -0.242030, 0.276993, -9.748263
ATT, 187583, 0.00, -5.83, 0.00, -3.65, 206.90, 206.90
RCIN, 187583, 1527, 1524, 1143, 1923, 1124, 1500, 1121, 1500
RCOU, 187583, 1197, 1197, 1197, 1197, 1197, 1197, 32767, 32767
IMU, 187593, -0.000329, -0.000053, 0.001026, -0.237268, 0.271011, -9.776527
GPS, 3, 483581400, 1785, 6, 2.96, 35.7713271, -78.6744755, 0.00, 117.12, 0.05, 0.00, -0.090000, 187613
IMU, 187614, 0.000202, -0.000053, -0.000037, -0.226555, 0.276993, -9.749441
IMU, 187633, 0.000202, -0.000053, -0.000037, -0.252743, 0.267421, -9.758862
IMU, 187654, -0.000862, -0.000053, -0.000037, -0.239649, 0.273404, -9.776527
CTUN, 187663, 0, 0, 0, 0.000000, 0.000000, 0.03, 0.00, 0.00, 0, -11
IMU, 187673, -0.000329, -0.001117, 0.000494, -0.236078, 0.275797, -9.750620
ATT, 187683, 0.00, -5.84, 0.00, -3.65, 206.91, 206.91
RCIN, 187683, 1527, 1524, 1142, 1923, 1123, 1500, 1116, 1500
RCOU, 187683, 1197, 1197, 1197, 1197, 1197, 1197, 32767, 32767
IMU, 187693, 0.000734, -0.000053, -0.000037, -0.233697, 0.272207, -9.749441
IMU, 187712, 0.000734, -0.000053, 0.000494, -0.225365, 0.275797, -9.764751
IMU, 187733, 0.000734, -0.000053, 0.000494, -0.239649, 0.268618, -9.761218
IMU, 187754, 0.000734, -0.000053, -0.000037, -0.222984, 0.267421, -9.760040
CTUN, 187764, 0, 0, 0, 0.000000, -0.010000, -0.02, 0.00, 0.00, 0, -11
IMU, 187774, 0.000734, -0.000053, 0.000494, -0.244411, 0.273404, -9.764751
ATT, 187783, 0.00, -5.84, 0.00, -3.63, 206.91, 206.91
RCIN, 187783, 1528, 1524, 1143, 1923, 1124, 1500, 1117, 1500
RCOU, 187784, 1197, 1197, 1197, 1197, 1197, 1197, 32767, 32767
IMU, 187794, -0.000329, -0.000053, 0.001559, -0.233697, 0.266224, -9.738843
IMU, 187813, -0.000329, 0.000478, 0.000494, -0.240839, 0.263831, -9.754151
GPS, 3, 483581600, 1785, 6, 2.96, 35.7713265, -78.6744752, -0.02, 116.99, 0.01, 0.00, -0.070000, 187832
IMU, 187834, 0.000202, -0.000053, -0.001101, -0.243220, 0.271011, -9.760040
IMU, 187853, -0.000329, 0.000478, 0.000494, -0.219413, 0.279386, -9.761218
CTUN, 187864, 0, 0, 0, 0.000000, -0.030000, -0.18, 0.00, 0.00, 0, -11
IMU, 187873, 0.000202, 0.000478, -0.000037, -0.250363, 0.269814, -9.742375
ATT, 187883, 0.00, -5.85, 0.00, -3.62, 206.91, 206.91
RCIN, 187883, 1529, 1524, 1142, 1923, 1123, 1500, 1116, 1500
RCOU, 187883, 1197, 1197, 1197, 1197, 1197, 1197, 32767, 32767
IMU, 187893, 0.000734, 0.000478, -0.001101, -0.258695, 0.284173, -9.757685
IMU, 187913, -0.000329, -0.000053, -0.000569, -0.253934, 0.267421, -9.763573
IMU, 187934, -0.000329, -0.000053, -0.000037, -0.225365, 0.281779, -9.747087
DU32, 7, 303705
CURR, 187953, 0, 0, 1351, 0, 5120, 0.000000
IMU, 187954, 0.000202, -0.000053, -0.000569, -0.215841, 0.269814, -9.754151
CTUN, 187964, 0, 0, 0, 0.000000, -0.050000, -0.06, 0.00, 0.00, 0, -11
IMU, 187973, 0.000734, -0.000053, 0.000494, -0.220603, 0.254259, -9.767106
ATT, 187983, 0.00, -5.86, 0.00, -3.61, 206.91, 206.91
RCIN, 187984, 1527, 1524, 1142, 1923, 1124, 1500, 1117, 1500
RCOU, 187984, 1197, 1197, 1197, 1197, 1197, 1197, 32767, 32767
IMU, 187994, -0.000329, -0.000585, -0.000037, -0.240839, 0.267421, -9.777704
GPS, 3, 483581800, 1785, 6, 2.96, 35.7713260, -78.6744750, -0.06, 116.93, 0.02, 0.00, -0.080000, 188013
IMU, 188014, 0.000202, 0.000478, -0.000569, -0.244411, 0.268618, -9.756508
IMU, 188033, 0.000202, -0.000053, -0.000569, -0.246791, 0.279386, -9.728244
IMU, 188054, 0.000202, -0.000053, -0.000037, -0.243220, 0.255456, -9.743553
CTUN, 188064, 0, 0, 0, 0.000000, -0.060000, -0.04, 0.00, 0.00, 0, -12
IMU, 188074, 0.000202, 0.001011, 0.001026, -0.246791, 0.291352, -9.731777
ATT, 188083, 0.00, -5.86, 0.00, -3.60, 206.92, 206.92
RCIN, 188084, 1527, 1523, 1142, 1923, 1123, 1500, 1116, 1500
RCOU, 188084, 1197, 1197, 1197, 1197, 1197, 1197, 32767, 32767
IMU, 188093, 0.000202, -0.000053, -0.000037, -0.243220, 0.287762, -9.754151
IMU, 188113, 0.000202, -0.000053, -0.000037, -0.250363, 0.285369, -9.737665
IMU, 188134, 0.000202, -0.000053, -0.000037, -0.245601, 0.266224, -9.755330
IMU, 188154, -0.000329, 0.001011, -0.000037, -0.225365, 0.272207, -9.760040
CTUN, 188164, 0, 0, 0, 0.000000, -0.070000, -0.14, 0.00, 0.00, 0, -12
IMU, 188173, 0.000202, -0.000053, -0.000037, -0.226555, 0.278190, -9.756508
ATT, 188184, 0.00, -5.87, 0.00, -3.60, 206.92, 206.92
RCIN, 188184, 1527, 1524, 1142, 1923, 1123, 1500, 1117, 1500
RCOU, 188184, 1197, 1197, 1197, 1197, 1197, 1197, 32767, 32767
IMU, 188195, 0.000202, -0.000053, -0.000037, -0.240839, 0.271011, -9.748263
IMU, 188215, 0.000202, -0.000053, -0.000037, -0.240839, 0.278190, -9.745909
GPS, 3, 483582000, 1785, 6, 2.96, 35.7713257, -78.6744749, -0.09, 116.87, 0.03, 0.00, -0.050000, 188233
IMU, 188234, 0.000202, 0.000478, 0.000494, -0.257505, 0.257849, -9.751797
IMU, 188254, 0.000734, -0.000053, -0.000569, -0.250363, 0.260242, -9.758862
CTUN, 188264, 0, 0, 0, 0.000000, -0.090000, 0.00, 0.00, 0.00, 0, -12
IMU, 188273, -0.000329, -0.000053, -0.000037, -0.226555, 0.267421, -9.740020
ATT, 188284, 0.00, -5.87, 0.00, -3.59, 206.92, 206.92
RCIN, 188284, 1529, 1523, 1142, 1923, 1124, 1500, 1116, 1500
RCOU, 188284, 1197, 1197, 1197, 1197, 1197, 1197, 32767, 32767
IMU, 188294, -0.000862, -0.000053, -0.000037, -0.243220, 0.278190, -9.741199
IMU, 188313, 0.000202, -0.001117, -0.000569, -0.230126, 0.280583, -9.743553
IMU, 188334, -0.000329, -0.001117, -0.000037, -0.253934, 0.274600, -9.758862
IMU, 188355, -0.000329, 0.001011, -0.000037, -0.264647, 0.286566, -9.755330
CTUN, 188364, 0, 0, 0, 0.000000, -0.100000, -0.09, 0.00, 0.00, 0, -12
IMU, 188374, 0.000734, -0.000053, -0.000037, -0.250363, 0.254259, -9.760040
ATT, 188384, 0.00, -5.86, 0.00, -3.58, 206.93, 206.93
RCIN, 188384, 1527, 1524, 1142, 1923, 1123, 1500, 1116, 1500
RCOU, 188384, 1197, 1197, 1197, 1197, 1197, 1197, 32767, 32767
IMU, 188394, -0.000329, -0.001117, 0.001026, -0.228936, 0.279386, -9.774173
IMU, 188414, -0.000862, -0.000053, -0.000037, -0.233697, 0.275797, -9.752975
GPS, 3, 483582200, 1785, 6, 2.96, 35.7713254, -78.6744747, -0.11, 116.80, 0.00, 0.00, -0.040000, 188434
IMU, 188435, -0.000329, -0.000053, -0.000037, -0.251553, 0.278190, -9.763573
IMU, 188455, 0.000734, -0.000053, -0.000037, -0.226555, 0.276993, -9.742375
CTUN, 188465, 0, 0, 0, 0.000000, -0.110000, -0.06, 0.00, 0.00, 0, -12
IMU, 188475, -0.000329, -0.000053, -0.000037, -0.242030, 0.282976, -9.754151
ATT, 188484, 0.00, -5.85, 0.00, -3.58, 206.93, 206.93
RCIN, 188484, 1528, 1523, 1142, 1923, 1124, 1500, 1117, 1500
RCOU, 188485, 1197, 1197, 1197, 1197, 1197, 1197, 32767, 32767
IMU, 188495, -0.000329, -0.000053, -0.000037, -0.230126, 0.266224, -9.767106
IMU, 188513, -0.000329, -0.000053, -0.000037, -0.239649, 0.269814, -9.741199
IMU, 188534, 0.000202, -0.000053, -0.001101, -0.240839, 0.281779, -9.756508
IMU, 188555, 0.000202, -0.000053, -0.000569, -0.251553, 0.263831, -9.747087
CTUN, 188565, 0, 0, 0, 0.000000, -0.120000, -0.10, 0.00, 0.00, 0, -12
IMU, 188575, -0.000329, -0.000585, -0.000569, -0.245601, 0.267421, -9.744731
ATT, 188585, 0.00, -5.86, 0.00, -3.57, 206.93, 206.93
RCIN, 188585, 1528, 1524, 1142, 1923, 1123, 1500, 1116, 1500
RCOU, 188585, 1197, 1197, 1197, 1197, 1197, 1197, 32767, 32767
IMU, 188595, -0.000329, -0.000053, -0.000037, -0.247982, 0.262635, -9.742375
GPS, 3, 483582400, 1785, 6, 2.96, 35.7713254, -78.6744748, -0.13, 116.78, 0.04, 0.00, -0.040000, 188614
IMU, 188615, -0.000329, -0.000053, -0.000037, -0.247982, 0.273404, -9.769462
IMU, 188634, -0.000329, -0.000053, -0.001101, -0.251553, 0.272207, -9.776527
IMU, 188655, -0.000329, -0.000053, -0.000037, -0.225365, 0.271011, -9.767106
CTUN, 188665, 0, 0, 0, 0.000000, -0.130000, 0.05, 0.00, 0.00, 0, -12
IMU, 188674, 0.000202, -0.000585, -0.000037, -0.237268, 0.275797, -9.765928
ATT, 188684, 0.00, -5.86, 0.00, -3.56, 206.94, 206.94
RCIN, 188685, 1528, 1523, 1143, 1923, 1124, 1500, 1117, 1500
RCOU, 188685, 1197, 1197, 1197, 1197, 1197, 1197, 32767, 32767
IMU, 188695, -0.000329, -0.000053, -0.000037, -0.239649, 0.271011, -9.755330
IMU, 188714, -0.000329, -0.000585, -0.000037, -0.222984, 0.272207, -9.767106
IMU, 188734, -0.000329, -0.000585, 0.000494, -0.242030, 0.273404, -9.765928
IMU, 188755, 0.000202, -0.000053, -0.000037, -0.242030, 0.278190, -9.771816
CTUN, 188765, 0, 0, 0, 0.000000, -0.140000, -0.08, 0.00, 0.00, 0, -11
IMU, 188775, -0.000329, -0.000585, -0.000569, -0.220603, 0.279386, -9.762396
ATT, 188785, 0.00, -5.85, 0.00, -3.56, 206.94, 206.94
RCIN, 188785, 1528, 1524, 1142, 1923, 1123, 1500, 1116, 1500
RCOU, 188785, 1197, 1197, 1197, 1197, 1197, 1197, 32767, 32767
IMU, 188795, 0.000202, -0.000053, -0.000037, -0.236078, 0.280583, -9.757685
IMU, 188815, 0.000202, -0.000053, -0.001101, -0.231316, 0.271011, -9.764751
GPS, 3, 483582600, 1785, 6, 2.96, 35.7713257, -78.6744749, -0.14, 116.81, 0.01, 0.00, -0.050000, 188834
IMU, 188835, -0.000329, -0.001117, -0.000037, -0.227745, 0.278190, -9.742375
IMU, 188855, 0.000202, -0.000053, 0.001026, -0.239649, 0.271011, -9.749441
CTUN, 188865, 0, 0, 0, 0.000000, -0.140000, -0.01, 0.00, 0.00, 0, -11
IMU, 188874, 0.000202, -0.000053, 0.001026, -0.247982, 0.288959, -9.757685
ATT, 188885, 0.00, -5.84, 0.00, -3.55, 206.94, 206.94
RCIN, 188885, 1527, 1524, 1143, 1923, 1124, 1500, 1117, 1500
RCOU, 188885, 1197, 1197, 1197, 1197, 1197, 1197, 32767, 32767
IMU, 188895, -0.000329, 0.000478, -0.000569, -0.219413, 0.282976, -9.774173
IMU, 188914, -0.000329, 0.000478, -0.001101, -0.234888, 0.281779, -9.738843
IMU, 188934, -0.000329, -0.000053, 0.000494, -0.247982, 0.268618, -9.762396
DU32, 7, 303705
CURR, 188955, 0, 0, 1362, 0, 5166, 0.000000
IMU, 188956, 0.000202, -0.000053, -0.000037, -0.244411, 0.263831, -9.743553
CTUN, 188965, 0, 0, 0, 0.000000, -0.150000, -0.07, 0.00, 0.00, 0, -11
IMU, 188975, 0.000202, 0.000478, -0.000037, -0.228936, 0.267421, -9.736487
ATT, 188985, 0.00, -5.85, 0.00, -3.54, 206.94, 206.94
RCIN, 188985, 1528, 1523, 1143, 1923, 1122, 1500, 1116, 1500
RCOU, 188986, 1197, 1197, 1197, 1197, 1197, 1197, 32767, 32767
IMU, 188995, -0.000329, -0.000053, 0.000494, -0.234888, 0.278190, -9.747087
GPS, 3, 483582800, 1785, 6, 2.96, 35.7713261, -78.6744749, -0.15, 116.92, 0.05, 0.00, -0.030000, 189015
IMU, 189016, 0.000734, -0.000585, -0.000037, -0.232507, 0.273404, -9.738843
IMU, 189035, -0.000329, -0.000053, -0.000037, -0.244411, 0.280583, -9.765928
IMU, 189056, 0.000202, -0.000053, -0.000037, -0.257505, 0.259045, -9.757685
CTUN, 189065, 0, 0, 0, 0.000000, -0.160000, -0.12, 0.00, 0.00, 0, -11
IMU, 189075, -0.000329, -0.000053, 0.000494, -0.244411, 0.279386, -9.749441
ATT, 189085, 0.00, -5.86, 0.00, -3.54, 206.95, 206.95
RCIN, 189085, 1527, 1524, 1142, 1923, 1124, 1500, 1117, 1500
RCOU, 189085, 1197, 1197, 1197, 1197, 1197, 1197, 32767, 32767
IMU, 189095, -0.000329, -0.000053, -0.000037, -0.233697, 0.269814, -9.732955
IMU, 189115, -0.000329, -0.000585, 0.000494, -0.242030, 0.253062, -9.741199
IMU, 189135, 0.000734, -0.000053, -0.000037, -0.234888, 0.266224, -9.761218
IMU, 189155, -0.000329, -0.000053, 0.000494, -0.243220, 0.281779, -9.743553
CTUN, 189165, 0, 0, 0, 0.000000, -0.170000, -0.01, 0.00, 0.00, 0, -11
IMU, 189175, -0.001394, -0.000053, -0.000037, -0.218222, 0.276993, -9.769462
ATT, 189185, 0.00, -5.87, 0.00, -3.55, 206.96, 206.96
RCIN, 189185, 1528, 1523, 1143, 1923, 1124, 1500, 1116, 1500
RCOU, 189186, 1197, 1197, 1197, 1197, 1197, 1197, 32767, 32767
IMU, 189196, -0.000329, -0.000585, -0.000037, -0.236078, 0.272207, -9.765928
IMU, 189216, -0.000329, -0.000053, -0.000037, -0.246791, 0.291352, -9.749441
GPS, 3, 483583000, 1785, 6, 2.96, 35.7713267, -78.6744749, -0.17, 117.03, 0.01, 0.00, -0.020000, 189234
IMU, 189236, -0.000329, 0.000478, -0.000037, -0.236078, 0.271011, -9.730598
IMU, 189256, -0.000329, -0.000053, -0.000037, -0.239649, 0.254259, -9.765928
CTUN, 189266, 0, 0, 0, 0.000000, -0.170000, -0.05, 0.00, 0.00, 0, -11
IMU, 189275, 0.000202, -0.000053, 0.001026, -0.234888, 0.274600, -9.761218
ATT, 189285, 0.00, -5.87, 0.00, -3.55, 206.96, 206.96
RCIN, 189285, 1527, 1524, 1142, 1923, 1124, 1500, 1117, 1500
RCOU, 189286, 1197, 1197, 1197, 1197, 1197, 1197, 32767, 32767
IMU, 189295, -0.000329, 0.000478, -0.000037, -0.228936, 0.263831, -9.748263
IMU, 189315, 0.000202, 0.000478, -0.000037, -0.238459, 0.276993, -9.760040
IMU, 189336, -0.000329, -0.000053, -0.000037, -0.230126, 0.274600, -9.742375
IMU, 189355, 0.000202, -0.000053, 0.000494, -0.257505, 0.272207, -9.751797
CTUN, 189366, 0, 0, 0, 0.000000, -0.180000, -0.16, 0.00, 0.00, 0, -11
IMU, 189375, -0.000329, -0.000585, -0.000569, -0.245601, 0.279386, -9.757685
ATT, 189385, 0.00, -5.87, 0.00, -3.53, 206.96, 206.96
RCIN, 189386, 1528, 1523, 1143, 1923, 1124, 1500, 1116, 1500
RCOU, 189386, 1197, 1197, 1197, 1197, 1197, 1197, 32767, 32767
IMU, 189396, 0.000202, -0.000053, -0.000037, -0.224174, 0.281779, -9.752975
IMU, 189416, 0.000734, -0.000053, -0.000037, -0.231316, 0.281779, -9.748263
GPS, 3, 483583200, 1785, 6, 2.96, 35.7713267, -78.6744746, -0.19, 117.20, 0.00, 0.00, -0.010000, 189435
IMU, 189436, 0.000734, 0.000478, -0.001101, -0.246791, 0.274600, -9.732955
IMU, 189456, 0.000734, -0.000053, -0.001101, -0.225365, 0.266224, -9.756508
CTUN, 189466, 0, 0, 0, 0.000000, -0.190000, -0.09, 0.00, 0.00, 0, -11
IMU, 189475, -0.000329, 0.000478, -0.000037, -0.244411, 0.286566, -9.758862
ATT, 189485, 0.00, -5.87, 0.00, -3.51, 206.96, 206.96
RCIN, 189486, 1528, 1524, 1142, 1870, 1124, 1500, 1116, 1500
RCOU, 189486, 1197, 1197, 1197, 1197, 1197, 1197, 32767, 32767
IMU, 189496, -0.000329, -0.000053, -0.000037, -0.234888, 0.265028, -9.751797
IMU, 189515, -0.000329, -0.000053, 0.001026, -0.246791, 0.278190, -9.757685
IMU, 189535, 0.000734, -0.000053, -0.000037, -0.237268, 0.268618, -9.767106
IMU, 189556, -0.000329, -0.000053, -0.000037, -0.227745, 0.273404, -9.742375
CTUN, 189566, 0, 0, 0, 0.000000, -0.200000, -0.13, 0.00, 0.00, 0, -11
IMU, 189576, 0.000734, -0.000053, -0.000037, -0.234888, 0.267421, -9.725888
ATT, 189586, 0.00, -5.87, 0.00, -3.50, 206.97, 206.97
RCIN, 189586, 1527, 1524, 1142, 1758, 1124, 1500, 1117, 1500
RCOU, 189587, 1197, 1197, 1197, 1197, 1197, 1197, 32767, 32767
IMU, 189597, -0.000329, -0.001117, -0.000037, -0.234888, 0.269814, -9.767106
IMU, 189617, -0.000329, -0.000053, -0.000037, -0.232507, 0.269814, -9.735310
GPS, 3, 483583400, 1785, 6, 2.96, 35.7713265, -78.6744743, -0.20, 117.25, 0.04, 0.00, 0.010000, 189635
IMU, 189636, -0.000329, -0.000053, -0.000037, -0.222984, 0.279386, -9.742375
IMU, 189657, -0.000329, -0.000053, -0.001101, -0.236078, 0.272207, -9.725888
CTUN, 189666, 0, 0, 0, 0.000000, -0.200000, -0.13, 0.00, 0.00, 0, -11
IMU, 189676, 0.000734, -0.000585, -0.000037, -0.234888, 0.279386, -9.737665
ATT, 189686, 0.00, -5.87, 0.00, -3.50, 206.97, 206.97
RCIN, 189686, 1527, 1524, 1143, 1640, 1124, 1500, 1117, 1500
RCOU, 189686, 1197, 1197, 1197, 1197, 1197, 1197, 32767, 32767
IMU, 189696, -0.000329, -0.000053, -0.000037, -0.232507, 0.272207, -9.751797
IMU, 189716, -0.000329, -0.000585, -0.001101, -0.233697, 0.276993, -9.769462
IMU, 189736, -0.000329, -0.000053, -0.000037, -0.224174, 0.280583, -9.732955
IMU, 189757, -0.000329, -0.000053, -0.000569, -0.244411, 0.281779, -9.744731
CTUN, 189766, 0, 0, 0, 0.000000, -0.210000, -0.17, 0.00, 0.00, 0, -11
IMU, 189776, -0.000329, -0.000053, -0.000569, -0.226555, 0.272207, -9.764751
ATT, 189786, 0.00, -5.88, 0.00, -3.50, 206.97, 206.97
RCIN, 189786, 1527, 1524, 1142, 1523, 1124, 1500, 1116, 1500
RCOU, 189786, 1197, 1197, 1197, 1197, 1197, 1197, 32767, 32767
IMU, 189797, -0.000329, 0.000478, -0.000037, -0.238459, 0.267421, -9.760040
GPS, 3, 483583600, 1785, 6, 2.96, 35.7713264, -78.6744742, -0.22, 117.25, 0.05, 0.00, 0.030000, 189816
IMU, 189818, -0.000329, -0.000053, -0.000037, -0.234888, 0.263831, -9.741199
IMU, 189836, 0.000202, -0.000053, -0.000037, -0.251553, 0.257849, -9.754151
IMU, 189856, 0.001266, -0.000053, 0.000494, -0.237268, 0.278190, -9.740020
CTUN, 189867, 0, 0, 0, 0.000000, -0.220000, -0.25, 0.00, 0.00, 0, -11
IMU, 189876, 0.000202, 0.000478, -0.000037, -0.233697, 0.272207, -9.761218
ATT, 189886, 0.00, -5.88, 0.00, -3.50, 206.98, 206.98
RCIN, 189886, 1528, 1524, 1142, 1523, 1124, 1500, 1116, 1500
RCOU, 189886, 1197, 1197, 1197, 1197, 1197, 1197, 32767, 32767
IMU, 189896, -0.000329, 0.001011, -0.000037, -0.236078, 0.276993, -9.750620
IMU, 189916, 0.000202, 0.000478, -0.000037, -0.219413, 0.271011, -9.758862
IMU, 189936, 0.000202, 0.000478, -0.000569, -0.222984, 0.278190, -9.762396
DU32, 7, 303705
CURR, 189956, 0, 0, 1364, 0, 5166, 0.000000
IMU, 189957, -0.000329, 0.000478, -0.000037, -0.230126, 0.279386, -9.757685
CTUN, 189967, 0, 0, 0, 0.000000, -0.240000, -0.19, 0.00, 0.00, 0, -11
IMU, 189976, -0.000329, 0.000478, -0.000037, -0.219413, 0.265028, -9.752975
ATT, 189986, 0.00, -5.88, 0.00, -3.50, 206.98, 206.98
RCIN, 189986, 1528, 1524, 1143, 1523, 1124, 1500, 1117, 1500
RCOU, 189987, 1197, 1197, 1197, 1197, 1197, 1197, 32767, 32767
IMU, 189997, -0.000862, -0.000053, -0.000037, -0.244411, 0.273404, -9.742375
GPS, 3, 483583800, 1785, 6, 2.96, 35.7713264, -78.6744740, -0.24, 117.24, 0.03, 0.00, 0.000000, 190017
IMU, 190018, 0.000734, -0.000585, -0.000037, -0.221793, 0.267421, -9.756508
IMU, 190037, -0.000329, -0.000053, -0.000037, -0.239649, 0.265028, -9.735310
IMU, 190057, 0.000202, -0.000053, -0.000037, -0.244411, 0.282976, -9.756508
CTUN, 190067, 0, 0, 0, 0.000000, -0.250000, -0.09, 0.00, 0.00, 0, -11
IMU, 190076, 0.000734, -0.000053, -0.000037, -0.227745, 0.265028, -9.741199
ATT, 190086, 0.00, -5.88, 0.00, -3.48, 206.99, 206.99
RCIN, 190086, 1527, 1525, 1169, 1523, 1124, 1500, 1121, 1500
RCOU, 190086, 1197, 1197, 1197, 1197, 1197, 1197, 32767, 32767
IMU, 190096, 0.000734, -0.000053, -0.000037, -0.237268, 0.276993, -9.760040
EV, 15
IMU, 190117, 0.000202, 0.000478, -0.000037, -0.240839, 0.262635, -9.757685
IMU, 190138, -0.000329, -0.000053, -0.000037, -0.245601, 0.263831, -9.758862
IMU, 190159, -0.000329, -0.000053, -0.000569, -0.239649, 0.265028, -9.748263
CTUN, 190168, 208, 0, 208, 0.000000, -0.250000, -0.12, 0.00, 0.00, 0, -11
EV, 28
IMU, 190180, -0.000329, -0.000053, -0.000037, -0.262266, 0.256652, -9.758862
ATT, 190188, 0.00, -5.88, 0.00, -3.46, 207.00, 207.00
RCIN, 190188, 1527, 1525, 1227, 1523, 1124, 1500, 1121, 1500
RCOU, 190189, 1232, 1361, 1354, 1239, 1299, 1293, 32767, 32767
IMU, 190200, 0.000734, -0.000053, 0.000494, -0.228936, 0.271011, -9.765928
GPS, 3, 483584000, 1785, 6, 2.96, 35.7713263, -78.6744738, -0.25, 117.23, 0.04, 0.00, 0.040000, 190217
IMU, 190238, -0.000329, -0.000053, -0.000037, -0.237268, 0.281779, -9.778883
IMU, 190259, -0.000329, 0.000478, 0.001026, -0.265838, 0.304514, -9.828343
CTUN, 190269, 215, 0, 215, 0.000000, -0.260000, -0.23, 0.00, 0.00, 0, -11
IMU, 190278, 0.001266, 0.003671, -0.001101, -0.133705, 0.281779, -9.767106
ATT, 190288, 0.00, -5.87, 0.00, -3.45, 207.00, 207.00
RCIN, 190288, 1527, 1525, 1255, 1523, 1124, 1500, 1121, 1500
RCOU, 190288, 1252, 1393, 1387, 1258, 1325, 1319, 32767, 32767
IMU, 190298, 0.007651, -0.000585, 0.004219, -0.194415, 0.329641, -9.698803
IMU, 190319, 0.003926, -0.003777, -0.001101, -0.252743, 0.221952, -9.745909
IMU, 190338, 0.006055, 0.005267, 0.001026, 0.015092, 0.212380, -9.772994
IMU, 190359, 0.003394, 0.000478, -0.002165, -0.102755, 0.202808, -9.715290
CTUN, 190369, 275, 0, 275, 0.000000, -0.270000, -0.12, 0.00, 0.00, 0, -11
IMU, 190380, -0.000862, -0.001117, -0.003229, -0.253934, 0.229132, -9.709401
ATT, 190389, 0.00, -5.85, 0.00, -3.44, 207.00, 207.01
RCIN, 190389, 1528, 1525, 1316, 1523, 1124, 1500, 1121, 1500
RCOU, 190389, 1283, 1423, 1419, 1287, 1355, 1351, 32767, 32767
IMU, 190400, 0.008183, 0.004203, 0.000494, -0.208699, 0.200415, -9.802436
GPS, 3, 483584200, 1785, 6, 2.96, 35.7713262, -78.6744736, -0.27, 117.24, 0.01, 0.00, 0.030000, 190419
IMU, 190420, 0.006055, -0.000585, 0.007412, -0.245601, 0.316479, -9.771816
IMU, 190438, 0.007651, -0.002713, 0.000494, -0.220603, 0.099905, -9.710579
IMU, 190460, -0.001394, -0.001649, -0.017064, -0.208699, 0.208790, -9.727067
CTUN, 190469, 308, 0, 308, 0.000000, -0.270000, -0.28, 0.00, 0.00, 0, -11
IMU, 190480, 0.014037, 0.009524, 0.017522, 0.026996, 0.207594, -9.736487
ATT, 190488, 0.00, -5.84, 0.00, -3.43, 207.00, 207.02
RCIN, 190489, 1528, 1525, 1316, 1523, 1124, 1500, 1121, 1500
RCOU, 190489, 1307, 1453, 1455, 1306, 1385, 1376, 32767, 32767
IMU, 190498, 0.005523, -0.003777, 0.007944, -0.327737, -0.011372, -9.697624
IMU, 190518, -0.006183, -0.007502, -0.028771, -0.339641, 0.215970, -9.654052
IMU, 190539, -0.001926, 0.012185, 0.016990, 0.212695, 0.192039, -9.721178
IMU, 190560, 0.017229, -0.008566, 0.016458, -0.324166, 0.158536, -9.716467
CTUN, 190569, 308, 0, 308, 0.000000, -0.280000, -0.38, 0.00, 0.00, 0, -11
IMU, 190580, -0.014696, -0.012291, -0.042073, -0.684852, -0.139402, -9.672894
ATT, 190589, 0.00, -5.87, 0.00, -3.43, 207.00, 207.00
RCIN, 190589, 1528, 1525, 1316, 1523, 1124, 1500, 1121, 1500
RCOU, 190589, 1289, 1471, 1443, 1318, 1366, 1395, 32767, 32767
IMU, 190600, 0.006055, 0.027084, 0.054770, 0.315068, 0.552197, -9.870739
GPS, 3, 483584400, 1785, 6, 2.96, 35.7713259, -78.6744734, -0.29, 117.36, 0.04, 0.00, 0.010000, 190619
IMU, 190621, 0.019358, -0.008566, -0.022385, -0.450347, 0.723303, -9.908423
IMU, 190638, 0.000202, -0.005906, -0.044734, -0.222984, -0.384692, -9.655230
IMU, 190659, -0.014696, 0.011121, 0.104256, -0.397970, 0.675441, -9.510379
CTUN, 190669, 309, 0, 309, 0.000000, -0.300000, -0.28, 0.00, 0.00, 0, -11
IMU, 190680, -0.020017, -0.032511, -0.109651, -0.438443, 0.610828, -9.701158
ATT, 190689, 0.00, -5.85, 0.00, -3.43, 207.00, 206.98
RCIN, 190689, 1528, 1524, 1317, 1523, 1124, 1500, 1121, 1500
RCOU, 190689, 1323, 1440, 1426, 1337, 1403, 1360, 32767, 32767
IMU, 190698, 0.016697, 0.010588, 0.069669, -0.211080, -0.676648, -9.720000
IMU, 190718, 0.020954, 0.012185, -0.010147, 0.381730, -0.193246, -9.724710
IMU, 190740, -0.047155, -0.020805, -0.021321, -0.938404, 1.321573, -9.545709
IMU, 190760, -0.001926, -0.004842, 0.026568, -1.363371, 1.096624, -10.17222
CTUN, 190769, 309, 0, 309, 0.000000, -0.310000, -0.30, 0.00, 0.00, 0, -11
IMU, 190780, 0.014569, 0.039322, 0.020182, 0.968588, 0.674245, -9.823633
ATT, 190789, 0.00, -5.83, 0.00, -3.42, 207.00, 207.07
RCIN, 190789, 1527, 1525, 1317, 1523, 1124, 1500, 1121, 1500
RCOU, 190790, 1249, 1515, 1514, 1250, 1393, 1370, 32767, 32767
IMU, 190800, 0.095981, 0.047836, -0.046330, 2.395858, -2.713160, -8.938042
GPS, 3, 483584600, 1785, 6, 2.96, 35.7713258, -78.6744732, -0.32, 117.38, 0.03, 0.00, 0.000000, 190820
IMU, 190831, -0.092384, 0.019102, -0.045266, 0.563858, 3.130742, -8.759039
IMU, 190849, -0.087063, 0.056350, -0.181486, -0.131324, 4.104725, -8.821454
CTUN, 190869, 308, 0, 308, 0.000000, -0.320000, -0.42, 0.00, 0.00, 0, -11
IMU, 190871, -0.145063, 0.003671, -0.139450, -2.407336, 3.853451, -9.933155
ATT, 190889, 0.00, -5.77, 0.00, -3.39, 207.00, 207.03
RCIN, 190889, 1527, 1525, 1316, 1523, 1124, 1500, 1121, 1500
RCOU, 190889, 1234, 1529, 1450, 1311, 1344, 1416, 32767, 32767
IMU, 190889, -0.050348, 0.046240, -0.093156, -0.594383, 2.577940, -10.86350
IMU, 190909, 0.107688, 0.053157, -0.018128, 0.344828, -0.906384, -11.32042
IMU, 190929, 0.089596, 0.060607, -0.045798, 1.631632, 1.166023, -10.35122
IMU, 190949, -0.018953, 0.013781, -0.101670, -1.093154, 4.476849, -10.30294
DU32, 7, 303225
CURR, 190960, 308, 2548, 1311, 0, 5143, 0.000000
CTUN, 190970, 308, 0, 308, 0.000000, -0.340000, -0.31, 0.00, 0.00, 0, -11
IMU, 190980, 0.181651, 0.017506, 0.170237, 2.717261, -5.197177, -8.120753
ATT, 190989, 0.00, -5.76, 0.00, -3.41, 207.00, 207.04
RCIN, 190989, 1528, 1525, 1316, 1523, 1124, 1500, 1121, 1500
RCOU, 190990, 1231, 1599, 1547, 1296, 1407, 1437, 32767, 32767
IMU, 191001, 0.023615, -0.009631, 0.046788, 1.936370, -0.681434, -8.239696
GPS, 3, 483584800, 1785, 6, 2.96, 35.7713256, -78.6744734, -0.35, 117.37, 0.13, 0.00, 0.010000, 191020
IMU, 191021, -0.111540, 0.059010, -0.071339, 1.025727, 2.972798, -9.623432
IMU, 191040, -0.122183, 0.014845, -0.055908, -0.821746, 3.628502, -9.974372
IMU, 191060, -0.090788, -0.028787, -0.081450, -1.662157, 3.885759, -10.72925
CTUN, 191070, 309, 0, 309, 0.000000, -0.350000, -0.34, 0.00, 0.00, 0, -11
IMU, 191081, -0.079614, -0.051135, -0.151156, -1.513359, 3.799608, -11.29216
ATT, 191089, 0.00, -5.64, 0.00, -3.47, 207.00, 207.10
RCIN, 191090, 1528, 1529, 1317, 1523, 1124, 1500, 1121, 1500
RCOU, 191090, 1397, 1365, 1408, 1355, 1387, 1376, 32767, 32767
IMU, 191100, -0.104091, -0.020273, -0.105395, -1.708582, 2.904596, -11.15909
IMU, 191120, -0.035449, -0.021869, -0.067615, -1.212192, 0.336820, -11.17440
IMU, 191140, 0.013504, -0.035172, -0.014404, 0.591237, 0.103495, -9.669361
IMU, 191161, 0.053945, -0.019741, 0.106384, 1.662582, -1.642256, -10.66919
CTUN, 191170, 309, 0, 309, 0.000000, -0.360000, -0.37, 0.00, 0.00, 0, -11
IMU, 191180, 0.111413, 0.035066, 0.123412, 2.250631, -2.903410, -10.85761
ATT, 191189, 0.00, -5.66, 0.00, -3.49, 207.00, 207.04
RCIN, 191190, 1528, 1529, 1317, 1523, 1124, 1500, 1121, 1500
RCOU, 191190, 1231, 1581, 1521, 1299, 1392, 1428, 32767, 32767
IMU, 191201, 0.183780, -0.028255, 0.124476, 0.341257, -2.573164, -10.14395
GPS, 3, 483585000, 1785, 6, 2.96, 35.7713258, -78.6744734, -0.37, 117.38, 0.03, 0.00, 0.020000, 191220
IMU, 191221, 0.199211, -0.011759, 0.088825, -0.852696, -2.854352, -8.575326
IMU, 191240, 0.196550, 0.024955, 0.117559, 0.635281, -4.479253, -9.519799
IMU, 191260, 0.176330, 0.101047, 0.177687, 2.239918, -5.160084, -8.702512
CTUN, 191270, 272, 0, 286, 0.000000, -0.380000, -0.58, 0.00, 0.00, 0, -11
IMU, 191280, 0.193890, 0.093066, 0.173962, 2.458948, -6.193895, -8.681314
ATT, 191290, 0.00, -5.68, 0.00, -3.50, 207.00, 207.08
RCIN, 191290, 1527, 1532, 1283, 1523, 1124, 1500, 1121, 1500
RCOU, 191290, 1231, 1638, 1587, 1294, 1417, 1476, 32767, 32767
IMU, 191301, 0.074165, 0.082423, 0.051577, 2.347052, -1.984467, -7.805143
IMU, 191321, 0.072037, 0.012717, 0.038274, 1.116196, -1.875582, -8.819099
IMU, 191341, 0.142807, 0.025488, 0.024439, 0.482912, -1.897119, -7.982968
IMU, 191361, 0.107688, -0.001117, 0.029760, -0.019428, -1.917461, -8.298578
CTUN, 191370, 271, 0, 271, 0.000000, -0.400000, -0.46, 0.00, 0.00, 0, -11
IMU, 191381, 0.024679, -0.018144, 0.075522, -1.609780, -2.716749, -8.223208
ATT, 191390, 0.00, -5.61, 0.00, -3.44, 207.00, 207.08
RCIN, 191390, 1527, 1530, 1283, 1523, 1124, 1500, 1121, 1500
RCOU, 191390, 1257, 1441, 1396, 1301, 1343, 1354, 32767, 32767
IMU, 191401, -0.034917, -0.050071, 0.034549, -0.514627, -1.979681, -6.983144
GPS, 3, 483585200, 1785, 6, 2.96, 35.7713259, -78.6744733, -0.41, 117.43, 0.01, 0.00, 0.020000, 191420
IMU, 191432, -0.014696, -0.030383, -0.093688, 0.287690, 2.555206, -12.15538
IMU, 191450, -0.013632, -0.004842, -0.065486, -0.905073, 1.380204, -12.09414
CTUN, 191470, 271, 0, 271, 0.000000, -0.420000, -0.47, 0.00, 0.00, 0, -13
IMU, 191472, 0.008183, -0.028787, -0.010679, 0.150796, 0.026916, -11.66665
ATT, 191490, 0.00, -5.58, 0.00, -3.46, 207.00, 207.13
RCIN, 191490, 1528, 1532, 1283, 1523, 1124, 1500, 1121, 1500
RCOU, 191490, 1388, 1308, 1390, 1307, 1411, 1286, 32767, 32767
IMU, 191490, 0.166752, -0.018144, 0.075522, 0.935258, -3.866624, -11.17911
IMU, 191510, 0.196550, 0.017506, 0.135118, 3.104135, -3.608172, -9.148840
IMU, 191530, 0.159835, 0.035598, 0.214403, 3.362448, -4.889666, -9.074648
IMU, 191549, 0.086936, 0.057946, 0.085100, 3.300549, -2.008398, -8.819099
CTUN, 191570, 271, 0, 271, 0.000000, -0.430000, -0.37, 0.00, 0.00, 0, -12
IMU, 191572, 0.050752, -0.016016, 0.041999, 1.125719, -0.755620, -9.453852
ATT, 191590, 0.00, -5.67, 0.00, -3.41, 207.00, 207.11
RCIN, 191590, 1528, 1532, 1283, 1523, 1124, 1500, 1121, 1500
RCOU, 191590, 1323, 1373, 1396, 1301, 1371, 1326, 32767, 32767
IMU, 191591, 0.076293, 0.020166, 0.020715, -1.537167, -0.534260, -9.684671
IMU, 191610, -0.000862, -0.027722, 0.028164, -2.585894, 0.290155, -7.980612
GPS, 3, 483585400, 1785, 6, 2.96, 35.7713259, -78.6744732, -0.44, 117.45, 0.03, 0.00, 0.030000, 191621
IMU, 191632, -0.009907, -0.004310, 0.045192, -2.576370, -0.548618, -7.896999
IMU, 191650, 0.043303, -0.032511, 0.029760, -1.119342, -0.689810, -7.785123
CTUN, 191671, 271, 0, 271, 0.000000, -0.440000, -0.36, 0.00, 0.00, 0, -12
IMU, 191672, 0.071504, 0.079231, 0.066476, -0.771750, -2.141214, -9.316067
ATT, 191690, 0.00, -5.65, 0.00, -3.41, 207.00, 207.16
RCIN, 191690, 1528, 1525, 1284, 1523, 1124, 1500, 1121, 1500
RCOU, 191691, 1285, 1412, 1378, 1319, 1313, 1385, 32767, 32767
IMU, 191691, 0.032660, 0.085084, 0.034017, 0.915021, -0.820233, -9.271316
IMU, 191710, -0.038109, -0.003777, -0.047395, 0.855502, 1.377810, -9.774173
IMU, 191730, -0.138678, 0.024955, -0.177761, -0.420587, 5.802615, -9.251296
IMU, 191750, -0.276494, -0.041025, -0.226183, -2.916820, 5.832529, -10.93416
CTUN, 191771, 272, 0, 272, 0.000000, -0.450000, -0.53, 0.00, 0.00, 0, -14
IMU, 191772, -0.221155, -0.033044, -0.180422, -3.075141, 4.700602, -11.12965
ATT, 191790, 0.00, -5.71, 0.00, -3.43, 207.00, 207.15
RCIN, 191791, 1528, 1525, 1284, 1523, 1124, 1500, 1121, 1500
RCOU, 191791, 1261, 1612, 1638, 1231, 1485, 1408, 32767, 32767
IMU, 191791, -0.126439, -0.116053, -0.006954, -2.891822, 2.281198, -9.999104
IMU, 191810, -0.031192, -0.038897, 0.021779, -1.169338, -0.154957, -10.41246
GPS, 3, 483585600, 1785, 6, 2.96, 35.7713259, -78.6744731, -0.46, 117.48, 0.03, 0.00, 0.020000, 191821
IMU, 191832, 0.084275, 0.011121, 0.073926, 1.720911, -2.175913, -9.645808
IMU, 191850, 0.196018, 0.020166, 0.131393, 2.537513, -3.957561, -10.67625
CTUN, 191871, 272, 0, 272, 0.000000, -0.470000, -0.62, 0.00, 0.00, 0, -14
IMU, 191872, 0.301908, 0.028148, 0.191522, 2.623221, -5.872025, -10.81639
ATT, 191891, 0.00, -5.60, 0.00, -3.41, 207.00, 207.18
RCIN, 191891, 1527, 1525, 1284, 1523, 1124, 1500, 1121, 1500
RCOU, 191891, 1431, 1268, 1347, 1353, 1402, 1298, 32767, 32767
IMU, 191891, 0.219963, 0.035066, 0.094678, 1.588778, -2.801704, -10.03090
IMU, 191910, 0.108220, -0.001649, 0.037210, 1.430457, -2.598292, -9.297224
IMU, 191931, 0.116734, 0.049965, 0.037742, 0.861454, -2.015577, -8.381013
IMU, 191951, 0.075761, 0.018038, 0.049448, -0.626523, -1.571661, -8.554128
DU32, 7, 303225
CURR, 191961, 271, 5351, 1327, 0, 5166, 0.000000
CTUN, 191971, 271, 0, 271, 0.000000, -0.490000, -0.62, 0.00, 0.00, 0, -13
IMU, 191972, 0.007651, -0.021869, 0.057962, -2.909678, -2.715553, -8.032430
ATT, 191990, 0.00, -5.74, 0.00, -3.41, 207.00, 207.15
RCIN, 191990, 1527, 1525, 1283, 1523, 1124, 1500, 1121, 1500
RCOU, 191991, 1241, 1542, 1551, 1231, 1402, 1380, 32767, 32767
IMU, 191991, -0.082806, -0.052199, 0.012733, -1.590734, -0.456485, -6.380188
IMU, 192011, -0.078017, -0.000585, 0.077118, -1.987131, -0.355975, -6.992566
GPS, 3, 483585800, 1785, 6, 2.96, 35.7713258, -78.6744733, -0.51, 117.48, 0.06, 0.00, 0.010000, 192021
IMU, 192032, 0.001266, 0.018570, 0.082971, -1.412176, -0.558191, -6.895998
IMU, 192051, 0.055009, -0.000585, 0.061155, -0.434872, -0.533063, -8.320953
CTUN, 192071, 271, 0, 271, 0.000000, -0.520000, -0.53, 0.00, 0.00, 0, -13
IMU, 192072, -0.048219, -0.027190, -0.006422, -1.140769, 2.355384, -8.465804
ATT, 192091, 0.00, -5.62, 0.00, -3.45, 207.00, 207.14
RCIN, 192091, 1527, 1525, 1283, 1523, 1124, 1500, 1121, 1500
RCOU, 192091, 1231, 1610, 1549, 1308, 1383, 1476, 32767, 32767
IMU, 192091, -0.099302, 0.018038, -0.072404, -1.808574, 2.374528, -9.728244
IMU, 192111, -0.105687, 0.016974, -0.125615, -3.559627, 4.627613, -10.34062
IMU, 192131, -0.110476, -0.074016, -0.147963, -5.253541, 2.594692, -10.42777
IMU, 192151, -0.039173, -0.042089, -0.093688, -1.705011, 1.514216, -9.989682
CTUN, 192171, 271, 0, 271, 0.000000, -0.530000, -0.37, 0.00, 0.00, 0, -15
IMU, 192172, -0.052476, 0.014845, 0.018054, 1.214998, 1.347897, -10.84583
ATT, 192191, 0.00, -5.51, 0.00, -3.45, 207.00, 207.16
RCIN, 192191, 1528, 1525, 1283, 1523, 1124, 1500, 1121, 1500
RCOU, 192191, 1255, 1443, 1428, 1269, 1351, 1347, 32767, 32767
IMU, 192192, 0.019890, 0.028680, -0.028239, 1.316181, 0.551001, -11.54418
IMU, 192211, -0.017357, 0.002607, -0.068147, 1.786382, 1.227046, -11.89747
GPS, 3, 483586000, 1785, 6, 2.96, 35.7713254, -78.6744734, -0.54, 117.51, 0.06, 0.00, -0.040000, 192221
IMU, 192233, -0.055669, -0.029851, -0.061761, -0.168226, 1.151665, -12.34380
IMU, 192251, -0.059926, -0.015484, -0.085174, -0.275361, 0.565359, -10.71982
CTUN, 192272, 272, 0, 272, 0.000000, -0.540000, -0.45, 0.00, 0.00, 0, -14
IMU, 192273, 0.072037, -0.054328, 0.043595, -0.596764, -1.520209, -9.855430
ATT, 192291, 0.00, -5.53, 0.00, -3.46, 207.00, 207.20
RCIN, 192291, 1528, 1525, 1284, 1523, 1124, 1500, 1121, 1500
RCOU, 192291, 1308, 1390, 1459, 1242, 1376, 1323, 32767, 32767
IMU, 192292, 0.077890, -0.025062, 0.138311, 1.805428, -2.683246, -9.449141
IMU, 192311, 0.103963, 0.012185, 0.140439, 2.374431, -2.459493, -9.871917
IMU, 192331, 0.091725, 0.048900, 0.045192, -0.821746, -1.497475, -9.464451
IMU, 192351, 0.097578, 0.013781, 0.048384, -2.139500, -1.608753, -8.531753
CTUN, 192372, 272, 0, 272, 0.000000, -0.550000, -0.51, 0.00, 0.00, 0, -13
IMU, 192373, 0.053413, 0.007928, 0.051045, -1.497884, -0.708955, -8.998101
ATT, 192391, 0.00, -5.53, 0.00, -3.46, 207.00, 207.17
RCIN, 192391, 1527, 1525, 1284, 1523, 1124, 1500, 1121, 1500
RCOU, 192392, 1287, 1412, 1421, 1279, 1349, 1351, 32767, 32767
IMU, 192392, 0.055541, 0.023359, 0.048916, -0.002763, -1.613539, -9.215967
IMU, 192412, -0.023742, 0.055286, -0.010147, 0.537670, 0.612024, -9.476227
GPS, 3, 483586200, 1785, 6, 2.96, 35.7713255, -78.6744746, -0.56, 118.07, 0.07, 0.00, -0.010000, 192422
IMU, 192433, -0.093981, -0.033044, -0.067083, -1.939516, 3.417911, -9.810678
IMU, 192451, -0.216898, -0.027722, -0.187872, -2.253777, 5.090674, -9.740020
CTUN, 192472, 272, 0, 272, 0.000000, -0.560000, -0.48, 0.00, 0.00, 0, -15
IMU, 192482, 0.110881, -0.000585, 0.081375, 0.246026, -1.014073, -8.590635
ATT, 192491, 0.00, -5.57, 0.00, -3.45, 207.00, 207.17
RCIN, 192491, 1527, 1525, 1287, 1523, 1124, 1500, 1121, 1500
RCOU, 192492, 1231, 1636, 1589, 1290, 1417, 1475, 32767, 32767
IMU, 192502, 0.144936, 0.051561, 0.011669, -1.537167, -3.423905, -8.710755
IMU, 192522, 0.135890, 0.060075, 0.140971, 0.535289, -2.816062, -7.884046
IMU, 192543, 0.031064, 0.068588, 0.080311, 1.679247, -1.860027, -9.119399
IMU, 192563, -0.051944, 0.006332, 0.004219, 2.413713, 1.276105, -9.339620
CTUN, 192572, 306, 0, 306, 0.000000, -0.580000, -0.48, 0.00, 0.00, 0, -14
IMU, 192583, -0.049816, 0.035066, -0.077193, -0.586050, 2.373332, -10.41364
ATT, 192592, 0.00, -5.51, 0.00, -3.39, 207.00, 207.25
RCIN, 192592, 1527, 1525, 1314, 1523, 1124, 1500, 1121, 1500
RCOU, 192592, 1360, 1397, 1463, 1296, 1412, 1347, 32767, 32767
IMU, 192603, -0.143467, -0.041557, -0.176165, -3.150135, 4.734105, -10.08743
GPS, 3, 483586400, 1785, 6, 2.96, 35.7713250, -78.6744747, -0.58, 118.12, 0.05, 0.00, 0.010000, 192622
IMU, 192623, -0.172733, -0.052199, -0.150092, -3.133470, 3.847469, -9.976727
IMU, 192642, -0.171669, -0.045282, -0.091560, 0.057946, 3.196551, -9.805968
IMU, 192662, -0.200403, -0.002181, -0.094220, -1.613351, 4.062846, -10.06623
CTUN, 192672, 306, 0, 306, 0.000000, -0.580000, -0.37, 0.00, 0.00, 0, -13
IMU, 192683, -0.276494, -0.034640, -0.189468, -2.103789, 6.193884, -9.697624
ATT, 192692, 0.00, -5.36, 0.00, -3.38, 207.00, 207.30
RCIN, 192692, 1528, 1525, 1314, 1523, 1124, 1500, 1121, 1500
RCOU, 192692, 1497, 1262, 1360, 1398, 1397, 1361, 32767, 32767
IMU, 192703, -0.284476, -0.072952, -0.248532, -3.757230, 5.959362, -11.89865
IMU, 192723, -0.243504, -0.124566, -0.187339, -4.983324, 6.299179, -9.864851
IMU, 192744, -0.171137, -0.065502, -0.067615, -2.820399, 2.892630, -10.07212
IMU, 192764, -0.122183, 0.020699, -0.062826, 0.311497, 4.090367, -9.882516
CTUN, 192773, 306, 0, 306, 0.000000, -0.590000, -0.19, 0.00, 0.00, 0, -14
IMU, 192783, -0.095577, -0.044218, 0.002091, -1.345515, 2.643750, -9.930799
ATT, 192792, 0.00, -5.52, 0.00, -3.40, 207.00, 207.24
RCIN, 192792, 1528, 1525, 1314, 1523, 1123, 1500, 1121, 1500
RCOU, 192792, 1353, 1405, 1421, 1338, 1381, 1377, 32767, 32767
IMU, 192803, -0.147724, -0.014952, -0.077193, -1.509788, 3.895331, -9.616367
GPS, 3, 483586600, 1785, 6, 2.96, 35.7713238, -78.6744742, -0.58, 118.07, 0.02, 0.00, 0.050000, 192822
IMU, 192823, -0.068439, -0.057521, -0.093688, -2.244254, 3.470559, -8.902712
IMU, 192843, -0.023210, -0.083594, -0.037284, -3.934597, 0.397844, -8.829698
IMU, 192863, -0.007779, -0.049007, 0.033485, -0.752704, -1.783448, -8.217320
CTUN, 192873, 272, 0, 272, 0.000000, -0.580000, -0.54, 0.00, 0.00, 0, -14
IMU, 192882, 0.042770, 0.035598, 0.121283, 1.210236, -1.958143, -8.702512
ATT, 192892, 0.00, -5.50, 0.00, -3.45, 207.00, 207.20
RCIN, 192892, 1528, 1525, 1284, 1523, 1124, 1500, 1121, 1500
RCOU, 192892, 1231, 1595, 1554, 1282, 1403, 1437, 32767, 32767
IMU, 192903, 0.053945, 0.050497, 0.109045, 1.066200, -1.536961, -9.460917
IMU, 192923, -0.013100, 0.015910, -0.034092, -0.356307, 1.119358, -9.822455
IMU, 192943, -0.028531, -0.050071, -0.042073, -1.950229, 0.281779, -9.919024
DU32, 7, 303225
CURR, 192963, 272, 8171, 1320, 0, 5143, 0.000000
IMU, 192964, 0.047027, -0.012291, 0.056898, -1.545499, -1.194750, -9.883694
CTUN, 192973, 272, 0, 272, 0.000000, -0.590000, -0.43, 0.00, 0.00, 0, -12
IMU, 192983, -0.013100, 0.008992, 0.023375, 1.020966, 1.075086, -9.630499
ATT, 192992, 0.00, -5.43, 0.00, -3.43, 207.00, 207.24
RCIN, 192992, 1527, 1525, 1284, 1523, 1124, 1500, 1121, 1500
RCOU, 192992, 1245, 1456, 1457, 1244, 1351, 1349, 32767, 32767
IMU, 193003, -0.010439, 0.018038, -0.045798, -1.034825, 1.138502, -11.60424
GPS, 3, 483586800, 1785, 6, 2.96, 35.7713235, -78.6744741, -0.59, 118.03, 0.04, 0.00, 0.030000, 193023
IMU, 193024, -0.064183, -0.065502, -0.052184, -2.490663, 2.190261, -11.87981
IMU, 193043, -0.049816, -0.046346, 0.005815, -2.209733, 1.968901, -11.36282
IMU, 193063, 0.004459, -0.020805, -0.014936, -0.314643, 1.164827, -12.37324
CTUN, 193073, 272, 0, 272, 0.000000, -0.600000, -0.35, 0.00, 0.00, 0, -10
IMU, 193084, 0.081615, -0.098493, -0.044734, -1.947848, 1.966508, -11.32985
ATT, 193092, 0.00, -5.32, 0.00, -3.43, 207.00, 207.22
RCIN, 193092, 1527, 1525, 1284, 1523, 1123, 1500, 1121, 1500
RCOU, 193093, 1265, 1434, 1402, 1298, 1305, 1394, 32767, 32767
IMU, 193104, -0.029595, -0.047410, -0.041009, -2.154975, 0.811847, -9.931976
IMU, 193123, 0.045963, 0.003671, 0.117559, 1.497119, -1.405342, -10.87174
IMU, 193143, 0.107156, 0.041451, 0.090953, 1.443551, -1.965322, -11.24859
IMU, 193164, 0.070440, -0.021869, 0.026036, 0.854312, -2.218989, -11.79855
CTUN, 193173, 348, 0, 348, 0.000000, -0.590000, -0.65, 0.00, 0.00, 0, -10
IMU, 193184, 0.140147, 0.035066, 0.081375, 0.321020, -3.970723, -10.26172
ATT, 193192, 0.00, -5.46, 0.00, -3.40, 207.00, 207.18
RCIN, 193192, 1528, 1525, 1376, 1523, 1123, 1500, 1121, 1500
RCOU, 193193, 1231, 1648, 1590, 1303, 1447, 1460, 32767, 32767
IMU, 193204, 0.197614, 0.009524, 0.163320, 3.066043, -5.568105, -8.836764
GPS, 3, 483587000, 1785, 6, 2.96, 35.7713233, -78.6744742, -0.60, 118.06, 0.07, 0.00, 0.030000, 193223
IMU, 193225, 0.166220, 0.039855, 0.106384, 3.517198, -2.788542, -9.160617
IMU, 193243, 0.191229, 0.035066, 0.069137, -0.122992, -4.565404, -9.182993
IMU, 193263, 0.160899, 0.060075, 0.168641, 3.695755, -3.303054, -7.759215
CTUN, 193273, 413, 0, 412, 0.000000, -0.610000, -0.56, 0.00, 0.00, 0, -11
IMU, 193283, 0.131101, 0.044644, 0.010072, 2.053027, -1.484313, -10.19930
ATT, 193293, 0.00, -5.21, 0.00, -3.39, 207.00, 207.23
RCIN, 193293, 1528, 1525, 1409, 1523, 1123, 1500, 1121, 1500
RCOU, 193293, 1335, 1592, 1590, 1338, 1459, 1482, 32767, 32767
IMU, 193304, 0.078954, -0.021337, -0.029303, 0.692420, -0.673059, -10.55378
IMU, 193323, 0.082147, -0.014952, 0.022843, 1.023346, 0.414595, -9.528044
IMU, 193343, 0.105559, 0.020699, -0.070275, -0.657473, 1.570454, -10.44661
IMU, 193364, 0.183780, 0.013249, 0.026036, -0.380114, -0.927922, -8.920377
CTUN, 193373, 445, 0, 445, 0.000000, -0.620000, -0.59, 0.00, 0.00, 0, -9
IMU, 193384, 0.228477, 0.075506, 0.079247, 0.899546, -1.169623, -10.79873
ATT, 193393, 0.00, -4.49, 0.00, -3.36, 207.00, 207.19
RCIN, 193393, 1527, 1525, 1438, 1523, 1124, 1500, 1121, 1500
RCOU, 193394, 1433, 1556, 1572, 1414, 1519, 1475, 32767, 32767
IMU, 193404, 0.279027, 0.096258, -0.017596, 0.493626, -2.080190, -11.66077
IMU, 193424, 0.302972, 0.126056, 0.024439, -1.222906, 0.911160, -10.89294
GPS, 3, 483587200, 1785, 6, 2.96, 35.7713228, -78.6744741, -0.62, 118.02, 0.04, 0.00, 0.010000, 193443
IMU, 193444, 0.340752, 0.176607, -0.037817, -1.450269, 0.883639, -9.725888
IMU, 193464, 0.374275, 0.225029, 0.085632, 2.095881, 0.262635, -9.500957
CTUN, 193473, 389, 0, 408, 0.000000, -0.620000, -0.62, 0.00, 0.00, 0, 0
IMU, 193484, 0.473247, 0.175010, -0.040477, -1.413367, -0.378710, -10.88705
ATT, 193493, 0.00, -2.28, 0.00, -2.44, 207.00, 207.11
RCIN, 193493, 1528, 1525, 1374, 1523, 1123, 1500, 1121, 1500
RCOU, 193493, 1495, 1404, 1417, 1481, 1465, 1433, 32767, 32767
IMU, 193504, 0.616917, 0.254827, 0.163320, -1.541928, -2.683246, -8.939219
IMU, 193523, 0.613192, 0.233010, 0.077650, -1.537167, 0.400237, -12.02701
IMU, 193543, 0.607871, 0.156387, 0.103724, -4.278618, -0.683827, -9.768284
IMU, 193564, 0.501449, 0.348478, 0.141503, -0.307501, -1.252184, -6.917195
CTUN, 193573, 373, 0, 373, 0.000000, -0.620000, -0.79, 0.00, 0.00, 0, 0
IMU, 193585, 0.418440, 0.283561, 0.018586, -0.259886, 1.254567, -9.626966
ATT, 193594, 0.00, 0.96, 0.00, -0.84, 207.00, 207.31
RCIN, 193594, 1528, 1525, 1374, 1523, 1123, 1500, 1121, 1500
RCOU, 193594, 1571, 1293, 1377, 1494, 1487, 1384, 32767, 32767
IMU, 193605, 0.550935, 0.352203, 0.056366, 0.338876, -1.150479, -9.376127
GPS, 3, 483587400, 1785, 6, 2.96, 35.7713232, -78.6744749, -0.62, 118.11, 0.03, 0.00, 0.010000, 193624
IMU, 193624, 0.528587, 0.328258, 0.162788, 1.538782, -3.999440, -7.696799
IMU, 193643, 0.410990, 0.313359, 0.064880, 2.755353, -0.586908, -9.940221
IMU, 193664, 0.300844, 0.303781, -0.009615, -3.027526, 1.883947, -9.578683
CTUN, 193674, 373, 0, 373, 0.000000, -0.630000, -0.58, 0.00, 0.00, 0, -1
IMU, 193684, 0.260403, 0.278240, 0.101595, -1.906185, -1.161247, -7.746260
ATT, 193693, 0.00, 3.19, 0.00, 0.77, 207.00, 207.82
RCIN, 193693, 1528, 1525, 1374, 1522, 1124, 1500, 1121, 1500
RCOU, 193694, 1468, 1403, 1438, 1433, 1434, 1438, 32767, 32767
IMU, 193704, 0.222092, 0.289946, 0.197907, 2.795826, -2.022756, -8.413987
IMU, 193724, 0.129504, 0.226625, 0.098935, 2.939863, -0.762799, -9.745909
IMU, 193743, 0.209321, 0.211194, 0.071265, -0.259886, -0.918349, -11.71494
IMU, 193765, 0.189101, 0.125524, 0.214403, -2.984672, -0.489988, -7.868736
CTUN, 193774, 376, 0, 376, 0.000000, -0.630000, -0.42, 0.00, 0.00, 0, -7
IMU, 193786, 0.016697, 0.177139, 0.220788, 0.099609, -1.496279, -7.507198
ATT, 193794, 0.00, 4.07, 0.00, 1.94, 207.00, 208.87
RCIN, 193794, 1520, 1522, 1376, 1522, 1124, 1500, 1121, 1500
RCOU, 193794, 1529, 1349, 1460, 1417, 1444, 1433, 32767, 32767
IMU, 193805, 0.050220, 0.240992, 0.187797, 3.427920, -1.501065, -8.819099
GPS, 3, 483587600, 1785, 6, 2.96, 35.7713233, -78.6744754, -0.63, 118.07, 0.07, 0.00, -0.010000, 193824
IMU, 193825, 0.185376, 0.205873, 0.195247, 2.938672, -4.396692, -12.39915
