FMT, 128, 89, FMT, BBnNZ, Type,Length,Name,Format,Columns
FMT, 129, 31, PARM, QNf, TimeUS,Name,Value
FMT, 130, 50, GPS, QBIHBcLLeeEefB, TimeUS,Status,GMS,GWk,NSats,HDop,Lat,Lng,RAlt,Alt,Spd,GCrs,VZ,U
FMT, 132, 49, IMU, QffffffIIfBB, TimeUS,GyrX,GyrY,GyrZ,AccX,AccY,AccZ,ErrG,ErrA,Temp,GyHlt,AcHlt
FMT, 133, 75, MSG, QZ, TimeUS,Message
FMT, 134, 39, RCIN, Qhhhhhhhhhhhhhh, TimeUS,C1,C2,C3,C4,C5,C6,C7,C8,C9,C10,C11,C12,C13,C14
FMT, 135, 35, RCOU, Qhhhhhhhhhhhh, TimeUS,Ch1,Ch2,Ch3,Ch4,Ch5,Ch6,Ch7,Ch8,Ch9,Ch10,Ch11,Ch12
FMT, 137, 25, BARO, Qffcf, TimeUS,Alt,Press,Temp,CRt
FMT, 138, 17, POWR, QCCH, TimeUS,Vcc,VServo,Flags
FMT, 145, 45, CMD, QHHHfffffff, TimeUS,CTot,CNum,CId,Prm1,Prm2,Prm3,Prm4,Lat,Lng,Alt
FMT, 146, 20, RAD, QBBBBBHH, TimeUS,RSSI,RemRSSI,TxBuf,Noise,RemNoise,RxErrors,Fixed
FMT, 148, 39, CAM, QIHLLeeccC, TimeUS,GPSTime,GPSWeek,Lat,Lng,Alt,RelAlt,Roll,Pitch,Yaw
FMT, 164, 29, ARSP, Qffcff, TimeUS,Airspeed,DiffPress,Temp,RawPress,Offset
FMT, 166, 25, CURR, QhhhHfh, TimeUS,Throttle,Volt,Curr,Vcc,CurrTot,Volt2
FMT, 165, 27, ATT, QccccCCCC, TimeUS,DesRoll,Roll,DesPitch,Pitch,DesYaw,Yaw,ErrRP,ErrYaw
FMT, 167, 30, MAG, QhhhhhhhhhB, TimeUS,MagX,MagY,MagZ,OfsX,OfsY,OfsZ,MOfsX,MOfsY,MOfsZ,Health
FMT, 170, 13, MODE, QMB, TimeUS,Mode,ModeNum
FMT, 131, 50, GPS2, QBIHBcLLeeEefB, TimeUS,Status,GMS,GWk,NSats,HDop,Lat,Lng,RAlt,Alt,Spd,GCrs,VZ,U
FMT, 136, 49, IMU2, QffffffIIfBB, TimeUS,GyrX,GyrY,GyrZ,AccX,AccY,AccZ,ErrG,ErrA,Temp,GyHlt,AcHlt
FMT, 149, 49, IMU3, QffffffIIfBB, TimeUS,GyrX,GyrY,GyrZ,AccX,AccY,AccZ,ErrG,ErrA,Temp,GyHlt,AcHlt
FMT, 139, 29, AHR2, QccCfLL, TimeUS,Roll,Pitch,Yaw,Alt,Lat,Lng
FMT, 180, 27, POS, QLLff, TimeUS,Lat,Lng,Alt,RelAlt
FMT, 140, 29, SIM, QccCfLL, TimeUS,Roll,Pitch,Yaw,Alt,Lat,Lng
FMT, 141, 47, EKF1, QccCffffffccc, TimeUS,Roll,Pitch,Yaw,VN,VE,VD,PN,PE,PD,GX,GY,GZ
FMT, 142, 30, EKF2, Qbbbcchhhhhh, TimeUS,Ratio,AZ1bias,AZ2bias,VWN,VWE,MN,ME,MD,MX,MY,MZ
FMT, 143, 31, EKF3, Qcccccchhhc, TimeUS,IVN,IVE,IVD,IPN,IPE,IPD,IMX,IMY,IMZ,IVT
FMT, 144, 31, EKF4, QcccccccbbBBH, TimeUS,SV,SP,SH,SMX,SMY,SMZ,SVT,OFN,EFE,FS,TS,SS
FMT, 150, 34, TERR, QBLLHffHH, TimeUS,Status,Lat,Lng,Spacing,TerrH,CHeight,Pending,Loaded
FMT, 151, 18, UBX1, QBHBBH, TimeUS,Instance,noisePerMS,jamInd,aPower,agcCnt
FMT, 152, 16, UBX2, QBbBbB, TimeUS,Instance,ofsI,magI,ofsQ,magQ
FMT, 153, 24, UBX3, QBfff, TimeUS,Instance,hAcc,vAcc,sAcc
FMT, 171, 42, GRAW, QIHBBddfBbB, TimeUS,WkMS,Week,numSV,sv,cpMes,prMes,doMes,mesQI,cno,lli
FMT, 172, 24, GRXH, QdHbBB, TimeUS,rcvTime,week,leapS,numMeas,recStat
FMT, 173, 41, GRXS, QddfBBBHBBBBB, TimeUS,prMes,cpMes,doMes,gnss,sv,freq,lock,cno,prD,cpD,doD,trk
FMT, 154, 19, ESC1, Qcccc, TimeUS,RPM,Volt,Curr,Temp
FMT, 155, 19, ESC2, Qcccc, TimeUS,RPM,Volt,Curr,Temp
FMT, 156, 19, ESC3, Qcccc, TimeUS,RPM,Volt,Curr,Temp
FMT, 157, 19, ESC4, Qcccc, TimeUS,RPM,Volt,Curr,Temp
FMT, 158, 19, ESC5, Qcccc, TimeUS,RPM,Volt,Curr,Temp
FMT, 159, 19, ESC6, Qcccc, TimeUS,RPM,Volt,Curr,Temp
FMT, 160, 19, ESC7, Qcccc, TimeUS,RPM,Volt,Curr,Temp
FMT, 161, 19, ESC8, Qcccc, TimeUS,RPM,Volt,Curr,Temp
FMT, 162, 28, EKF5, QBhhhcccCC, TimeUS,normInnov,FIX,FIY,AFI,HAGL,offset,RI,meaRng,errHAGL
FMT, 168, 30, MAG2, QhhhhhhhhhB, TimeUS,MagX,MagY,MagZ,OfsX,OfsY,OfsZ,MOfsX,MOfsY,MOfsZ,Health
FMT, 169, 30, MAG3, QhhhhhhhhhB, TimeUS,MagX,MagY,MagZ,OfsX,OfsY,OfsZ,MOfsX,MOfsY,MOfsZ,Health
FMT, 174, 31, ACC1, QQfff, TimeUS,SampleUS,AccX,AccY,AccZ
FMT, 175, 31, ACC2, QQfff, TimeUS,SampleUS,AccX,AccY,AccZ
FMT, 176, 31, ACC3, QQfff, TimeUS,SampleUS,AccX,AccY,AccZ
FMT, 177, 31, GYR1, QQfff, TimeUS,SampleUS,GyrX,GyrY,GyrZ
FMT, 178, 31, GYR2, QQfff, TimeUS,SampleUS,GyrX,GyrY,GyrZ
FMT, 179, 31, GYR3, QQfff, TimeUS,SampleUS,GyrX,GyrY,GyrZ
FMT, 181, 35, PIDR, Qffffff, TimeUS,Des,P,I,D,FF,AFF
FMT, 182, 35, PIDP, Qffffff, TimeUS,Des,P,I,D,FF,AFF
FMT, 183, 35, PIDY, Qffffff, TimeUS,Des,P,I,D,FF,AFF
FMT, 184, 35, PIDA, Qffffff, TimeUS,Des,P,I,D,FF,AFF
FMT, 185, 35, PIDS, Qffffff, TimeUS,Des,P,I,D,FF,AFF
FMT, 163, 25, BAR2, Qffcf, TimeUS,Alt,Press,Temp,CRt
FMT, 186, 35, VIBE, QfffIII, TimeUS,VibeX,VibeY,VibeZ,Clip0,Clip1,Clip2
FMT, 187, 43, IMT, Qffffffff, TimeUS,DelT,DelvT,DelAX,DelAY,DelAZ,DelVX,DelVY,DelVZ
FMT, 188, 43, IMT2, Qffffffff, TimeUS,DelT,DelvT,DelAX,DelAY,DelAZ,DelVX,DelVY,DelVZ
FMT, 189, 43, IMT3, Qffffffff, TimeUS,DelT,DelvT,DelAX,DelAY,DelAZ,DelVX,DelVY,DelVZ
FMT, 190, 24, ORGN, QBLLe, TimeUS,Type,Lat,Lng,Alt
FMT, 191, 19, RPM, Qff, TimeUS,rpm1,rpm2
FMT, 25, 41, ATUN, QBBfffffff, TimeUS,Axis,TuneStep,Targ,Min,Max,RP,RD,SP,ddt
FMT, 26, 19, ATDE, Qff, TimeUS,Angle,Rate
FMT, 31, 22, PTUN, QBfHHH, TimeUS,Param,TunVal,CtrlIn,TunLo,TunHi
FMT, 12, 28, OF, QBffff, TimeUS,Qual,flowX,flowY,bodyX,bodyY
FMT, 5, 51, NTUN, Qffffffffff, TimeUS,DPosX,DPosY,PosX,PosY,DVelX,DVelY,VelX,VelY,DAccX,DAccY
FMT, 4, 39, CTUN, Qhhfffecchh, TimeUS,ThrIn,AngBst,ThrOut,DAlt,Alt,BarAlt,DSAlt,SAlt,DCRt,CRt
FMT, 6, 24, PM, QHHIhBH, TimeUS,NLon,NLoop,MaxT,PMT,I2CErr,INSErr
FMT, 29, 59, RATE, Qffffffffffff, TimeUS,RDes,R,ROut,PDes,P,POut,YDes,Y,YOut,ADes,A,AOut
FMT, 30, 27, MOTB, Qffff, TimeUS,LiftMax,BatVolt,BatRes,ThLimit
FMT, 10, 11, STRT, Q, TimeUS
FMT, 13, 12, EV, QB, TimeUS,Id
FMT, 20, 14, D16, QBh, TimeUS,Id,Value
FMT, 21, 14, DU16, QBH, TimeUS,Id,Value
FMT, 22, 16, D32, QBi, TimeUS,Id,Value
FMT, 23, 16, DU32, QBI, TimeUS,Id,Value
FMT, 24, 16, DFLT, QBf, TimeUS,Id,Value
FMT, 19, 13, ERR, QBB, TimeUS,Subsys,ECode
FMT, 32, 15, HELI, Qhh, TimeUS,DRRPM,ERRPM
MSG, 80751452, APM:Copter V3.3.3 (acf2e10c)
MSG, 80751461, PX4: 34e1d543 NuttX: 7c5ef883
MSG, 80751501, PX4v2 00470026 3335510F 38343436
MSG, 81292838, Frame: QUAD
MSG, 81292846, New mission
STRT, 81292853
MODE, 81292855, PosHold, 16
ORGN, 81293033, 0, 39.8761067, 32.6500076, 952.71
ORGN, 81293037, 1, 39.876109, 32.6500095, 954.02
EV, 81929267, 10
MODE, 81929270, PosHold, 16
BARO, 81931816, 1.331727, 90997.66, 34.09, 0.05516504
CTUN, 81931826, 0, 0, 85, 1.314398, 1.314398, 1.33, 0.00, 0.00, 2, 2
ATT, 81932038, 0.00, 2.09, 0.00, 2.23, 342.23, 342.23, 0.00, 0.02
EKF1, 81932055, 2.09, 2.23, 342.23, 0.1064398, 0.03737263, -0.02119166, 0.2650609, 0.1359038, -1.314398, 0.00, 0.00, 0.00
EKF2, 81932061, 50, -7, 2, 0.00, 0.00, 288, 22, 378, 0, 0, 0
EKF3, 81932065, 0.06, 0.15, 0.50, 0.00, -0.02, 0.03, 2, 15, 0, 0.00
EKF4, 81932089, 0.10, 0.00, 0.00, 0.01, 0.10, 0.00, 0.00, 0, 0, 0, 18, 9023
AHR2, 81932098, 2.76, 2.10, 341.71, 955.35, 39.876109, 32.6500095
POS, 81932123, 39.876109, 32.6500091, 955.33, 1.314398
RATE, 81932128, 60.92629, 60.92629, -9, 103.9083, 103.9083, -21, -54.59328, -54.59328, 1, -2.255249, -2.255249, 85
MOTB, 81932140, 1, 1, 0, 1
RCIN, 81932144, 1516, 1517, 1110, 1877, 969, 1498, 970, 1497, 0, 0, 0, 0, 0, 0
RCOU, 81932242, 1109, 1109, 1109, 1109, 0, 0, 0, 0, 0, 0, 0, 0
NTUN, 81932347, 26.50609, 13.59038, 26.50609, 13.59038, 0, 0, 10.64398, 3.737263, -25.56761, 45.83811
VIBE, 81932350, 0.03055619, 0.03249829, 0.05892144, 0, 0, 0
IMU, 81932403, 0.02327653, 0.02917795, -0.005729427, 0.4306023, -0.540839, -9.831147, 0, 0, 31.40997, 1, 1
IMU2, 81932403, -0.002009244, 0.007092876, -0.01332722, 0.5017704, -0.5846649, -9.733281, 0, 0, 34.875, 1, 1
UBX3, 81948557, 0, 2.02, 4.266, 0.62
UBX1, 81948730, 0, 111, 7, 1, 6643
UBX2, 81948761, 0, 52, 102, 10, 77
UBX3, 81948915, 0, 2.008, 4.248, 0.53
GPS, 81948979, 3, 386189000, 1918, 7, 1.18, 39.8761099, 32.6500091, 0.00, 952.61, 0.16, 0.00, -0.33, 1
IMU, 81951860, -0.0009530277, -0.001031529, -0.0004082381, 0.4218499, -0.5435199, -9.860791, 0, 0, 31.49862, 1, 1
IMU2, 81951860, 0.0008696463, -0.001335873, 0.000251777, 0.4336923, -0.4975558, -9.681284, 0, 0, 34.875, 1, 1
UBX3, 81968820, 0, 2.002, 4.243, 0.56
UBX3, 81969004, 0, 1.996, 4.236, 0.55
GPS, 81969187, 3, 386189600, 1918, 7, 1.18, 39.8761111, 32.6500091, 0.00, 952.74, 0.04, 0.00, -0.14, 1
IMU, 81971730, 0.0006317578, -0.003955469, 0.0004669936, 0.4431729, -0.4780144, -9.840637, 0, 0, 31.45429, 1, 1
IMU2, 81971730, 0.00329896, 0.0002663821, 0.001729401, 0.5689489, -0.4247876, -9.669374, 0, 0, 34.75, 1, 1
IMU, 81990907, 0.0009576457, -0.002950859, 0.03775116, 0.3792901, -0.6156503, -9.944148, 0, 0, 31.45429, 1, 1
IMU2, 81990907, 0.002337378, -0.005180698, 0.04755718, 0.5055323, -0.5520279, -9.733384, 0, 0, 34.75, 1, 1
IMU, 82011159, -0.0009883824, 0.007364177, 0.03445584, 0.3755462, -0.5980609, -9.849872, 0, 0, 31.45429, 1, 1
IMU2, 82011159, -5.246464E-05, 0.005285892, 0.04783525, 0.4344825, -0.689774, -9.700319, 0, 0, 34.75, 1, 1
CURR, 82028354, 85, 0, 0, 5343, 0, 0
POWR, 82028358, 5.34, 0.02, 1
MAG, 82028387, 252, 128, 383, -107, -11, -57, 0, 0, 0, 1
MAG2, 82028391, 233, 104, 421, -111, -102, -113, 0, 0, 0, 1
BARO, 82032447, 1.477859, 90996.13, 34.10, 0.0991889
CTUN, 82032457, 0, 0, 85, 1.320283, 1.320283, 1.47, 0.00, 0.00, 2, 2
IMU, 82032650, 0.003447803, 0.008362278, -0.04921814, 0.5070704, -0.4303315, -9.906446, 0, 0, 31.45429, 1, 1
IMU2, 82032650, 0.005899772, 0.005874736, -0.031709, 0.4476435, -0.3647428, -9.733611, 0, 0, 34.75, 1, 1
ATT, 82034686, 0.00, 2.09, 0.00, 2.24, 342.25, 342.25, 0.28, 0.02
EKF1, 82034705, 2.09, 2.24, 342.25, 0.109945, 0.0300344, -0.02243803, 0.2831857, 0.1357485, -1.320533, 0.00, 0.00, 0.00
EKF2, 82034711, 50, -7, 2, 0.00, 0.00, 288, 22, 378, 0, 0, 0
EKF3, 82034715, 0.14, 0.06, 0.11, -0.21, 0.00, 0.16, 0, 0, 0, 0.00
EKF4, 82034739, 0.03, 0.04, 0.01, 0.00, 0.00, 0.00, 0.00, 0, 0, 0, 16, 9023
AHR2, 82034748, 2.77, 2.76, 341.75, 955.49, 39.8761111, 32.6500091
POS, 82034773, 39.8761092, 32.6500091, 955.34, 1.320533
RATE, 82034778, 9.90935, 9.90935, 3, 52.9409, 52.9409, -2, -273.1297, -273.1297, 11, 0.6725311, 0.6725311, 85
MOTB, 82034819, 1, 1, 0, 1
RCIN, 82034823, 1514, 1514, 1110, 1765, 970, 1497, 970, 1498, 0, 0, 0, 0, 0, 0
RCOU, 82034890, 1178, 1178, 1178, 1178, 0, 0, 0, 0, 0, 0, 0, 0
NTUN, 82034907, 28.31857, 13.57485, 28.31857, 13.57485, 0, 0, 10.9945, 3.00344, -25.75593, 45.85366
VIBE, 82034911, 0.193175, 0.3644786, 0.318917, 0, 0, 0
UBX3, 82048681, 0, 1.97, 4.211, 0.56
GPS, 82048770, 3, 386189600, 1918, 7, 1.18, 39.8761117, 32.6500093, 0.01, 952.80, 0.06, 0.00, -0.02, 1
IMU, 82052256, -0.01502768, 0.01865806, -0.06616431, 0.625473, -0.6861757, -9.839965, 0, 0, 31.54294, 1, 1
IMU2, 82052256, -0.01431333, 0.02613221, -0.06831978, 0.716099, -0.7041169, -9.786516, 0, 0, 34.875, 1, 1
UBX1, 82068691, 0, 128, 15, 1, 6643
UBX2, 82068722, 0, 47, 119, 13, 84
IMU, 82071218, 0.009208918, -0.008524948, -0.04038868, 0.2521197, -0.3792438, -9.906686, 0, 0, 31.45429, 1, 1
IMU2, 82071218, 0.01036406, -0.005296814, -0.05174971, 0.4166616, -0.3904061, -9.789242, 0, 0, 34.875, 1, 1
IMU, 82091254, -0.006169014, -0.01746182, 0.0401045, 0.56707, -0.4684051, -9.826204, 0, 0, 31.54294, 1, 1
IMU2, 82091254, -0.005062393, -0.01654718, 0.04448433, 0.7342199, -0.5143825, -9.63559, 0, 0, 34.75, 1, 1
IMU, 82111196, 0.006044237, -0.02794907, 0.05776357, 0.3329424, -0.5278631, -9.875448, 0, 0, 31.54294, 1, 1
IMU2, 82111196, 0.002402301, -0.0290194, 0.07263862, 0.3800435, -0.5119754, -9.737898, 0, 0, 35, 1, 1
CURR, 82128867, 85, 0, 0, 5347, 0, 0
POWR, 82128871, 5.34, 0.02, 1
MAG, 82128898, 252, 129, 383, -107, -11, -57, 0, 0, 0, 1
MAG2, 82128901, 236, 85, 427, -111, -102, -113, 0, 0, 0, 1
BARO, 82132882, 1.367571, 90997.28, 34.12, 0.02983296
CTUN, 82132935, 0, 0, 85, 1.328745, 1.328745, 1.36, 0.00, 0.00, 2, 2
IMU, 82133054, 0.002707577, -0.002010697, 0.0342494, 0.2872597, -0.6804431, -9.910084, 0, 0, 31.45429, 1, 1
IMU2, 82133054, 0.003676838, -0.007384072, 0.05842881, 0.352092, -0.7390554, -9.658481, 0, 0, 34.875, 1, 1
ATT, 82134426, 0.00, 2.09, 0.00, 2.20, 342.31, 342.31, 0.24, 0.02
EKF1, 82134442, 2.09, 2.20, 342.31, 0.1190253, 0.01842289, -0.02398831, 0.3084621, 0.1381141, -1.328852, 0.00, 0.00, 0.00
EKF2, 82134449, 51, -7, 2, 0.00, 0.00, 288, 22, 378, 0, 0, 0
EKF3, 82134453, 0.06, 0.00, 0.00, -0.27, 0.00, 0.04, 0, -1, 0, 0.00
EKF4, 82134476, 0.01, 0.05, 0.00, 0.00, 0.00, 0.00, 0.00, 0, 0, 0, 16, 9023
AHR2, 82134486, 2.84, 2.83, 341.83, 955.38, 39.8761117, 32.6500093
POS, 82134510, 39.8761094, 32.6500092, 955.34, 1.328852
RATE, 82134545, 17.24827, 17.24827, 0, -5.579305, -5.579305, -2, 214.9983, 214.9983, 0, -2.256107, -2.256107, 85
MOTB, 82134558, 1, 1, 0, 1
RCIN, 82134562, 1514, 1513, 1111, 1600, 970, 1497, 970, 1497, 0, 0, 0, 0, 0, 0
RCOU, 82134639, 1178, 1178, 1178, 1178, 0, 0, 0, 0, 0, 0, 0, 0
NTUN, 82134692, 30.8462, 13.81141, 30.8462, 13.81141, 0, 0, 11.90253, 1.842289, -24.98314, 45.68734
VIBE, 82134696, 0.2771086, 0.3422859, 0.562237, 0, 0, 0
IMU, 82151283, 0.0008525758, 0.01116905, -0.01835953, 0.3829888, -0.5391537, -9.899951, 0, 0, 31.54294, 1, 1
IMU2, 82151283, 0.002685305, 0.01369204, -0.0103681, 0.4678952, -0.5260516, -9.784087, 0, 0, 35, 1, 1
IMU, 82171248, -0.01136953, 0.02804998, -0.04024132, 0.2890258, -0.4939606, -9.909115, 0, 0, 31.45429, 1, 1
IMU2, 82171248, -0.01108364, 0.03868804, -0.04346025, 0.4303234, -0.539309, -9.884345, 0, 0, 34.75, 1, 1
IMU, 82191288, 0.009896866, 0.02086946, -0.02998154, 0.6132517, -0.7705145, -9.794308, 0, 0, 31.45429, 1, 1
IMU2, 82191288, 0.007251365, 0.02554889, -0.03334685, 0.6330409, -0.7907645, -9.732229, 0, 0, 34.875, 1, 1
IMU, 82211383, 0.00013075, 0.00524215, 0.01402525, 0.4345587, -0.1998063, -9.863153, 0, 0, 31.49862, 1, 1
IMU2, 82211383, 0.002967986, 0.005214748, 0.009119523, 0.5428111, -0.2038765, -9.674421, 0, 0, 34.875, 1, 1
CURR, 82228724, 85, 0, 0, 5335, 0, 0
POWR, 82228728, 5.33, 0.02, 1
MAG, 82228758, 253, 128, 383, -107, -11, -57, 0, 0, 0, 1
MAG2, 82228761, 238, 100, 427, -111, -102, -113, 0, 0, 0, 1
BARO, 82232777, 1.408929, 90996.86, 34.13, 0.02046255
CTUN, 82232787, 0, 0, 85, 1.332887, 1.332887, 1.40, 0.00, 0.00, 2, 2
IMU, 82232888, -0.003207105, -0.01544727, 0.03433855, 0.5670341, -0.6034284, -9.847187, 0, 0, 31.40997, 1, 1
IMU2, 82232888, -0.003705538, -0.01285201, 0.04350138, 0.5521263, -0.60037, -9.743055, 0, 0, 34.875, 1, 1
ATT, 82234672, 0.00, 2.09, 0.00, 2.25, 342.28, 342.28, 0.24, 0.02
EKF1, 82234688, 2.09, 2.25, 342.28, 0.1329671, 0.01185641, -0.02613479, 0.3351802, 0.1402234, -1.333037, 0.00, 0.00, 0.00
EKF2, 82234694, 51, -7, 2, 0.00, 0.00, 288, 22, 378, 0, 0, 0
EKF3, 82234699, 0.06, 0.00, 0.00, -0.27, 0.00, 0.07, -1, 0, -1, 0.00
EKF4, 82234722, 0.01, 0.05, 0.00, 0.01, 0.00, 0.00, 0.00, 0, 0, 0, 16, 9023
AHR2, 82234731, 2.94, 2.80, 341.82, 955.42, 39.8761117, 32.6500093
POS, 82234756, 39.8761097, 32.6500092, 955.35, 1.333037
RATE, 82234761, -14.55314, -14.55314, -1, -92.09427, -92.09427, 0, 226.1282, 226.1282, -6, 0.4144669, 0.4144669, 85
MOTB, 82234773, 1, 1, 0, 1
RCIN, 82234777, 1514, 1514, 1110, 1530, 970, 1497, 970, 1497, 0, 0, 0, 0, 0, 0
RCOU, 82234844, 1178, 1178, 1178, 1178, 0, 0, 0, 0, 0, 0, 0, 0
NTUN, 82234904, 33.51802, 14.02234, 33.51802, 14.02234, 0, 0, 13.29671, 1.185641, -25.85793, 45.94401
VIBE, 82234908, 0.2123928, 0.2804746, 0.3498511, 0, 0, 0
UBX3, 82249071, 0, 1.967, 4.208, 0.48
GPS, 82249079, 3, 386191000, 1918, 7, 1.18, 39.8761118, 32.6500093, 0.02, 952.82, 0.11, 0.00, -0.01, 1
IMU, 82252370, 0.0005949627, -0.01664735, 0.02565901, 0.3956421, -0.6716025, -9.870975, 0, 0, 31.45429, 1, 1
IMU2, 82252370, 0.001989166, -0.01447857, 0.03837389, 0.400514, -0.6547043, -9.725863, 0, 0, 34.875, 1, 1
IMU, 82271783, -0.0004788687, -0.01302598, -0.004189827, 0.4110967, -0.4921633, -9.923306, 0, 0, 31.54294, 1, 1
IMU2, 82271783, 0.001226527, -0.0143834, 0.0008687823, 0.5116881, -0.5232208, -9.848986, 0, 0, 34.875, 1, 1
IMU, 82291666, -0.003701381, -0.005759528, -0.02923723, 0.4096211, -0.6345748, -9.854861, 0, 0, 31.45429, 1, 1
IMU2, 82291666, -0.005546986, -0.00935794, -0.02635672, 0.4086858, -0.5165141, -9.698949, 0, 0, 34.875, 1, 1
IMU, 82311618, 0.004388355, 0.001133567, -0.02907468, 0.3707891, -0.5937736, -9.828868, 0, 0, 31.45429, 1, 1
IMU2, 82311618, 2.396588E-05, 6.360408E-05, -0.03136548, 0.4426306, -0.6500844, -9.78914, 0, 0, 34.875, 1, 1
CURR, 82329126, 85, 0, 0, 5344, 0, 0
POWR, 82329130, 5.34, 0.02, 1
MAG, 82329156, 252, 129, 384, -107, -11, -57, 0, 0, 0, 1
MAG2, 82329160, 239, 102, 425, -111, -102, -113, 0, 0, 0, 1
BARO, 82333174, 1.381357, 90997.13, 34.12, 0.06865256
CTUN, 82333184, 0, 0, 85, 1.33853, 1.33853, 1.38, 0.00, 0.00, 2, 2
IMU, 82333261, 0.002442828, 0.006978485, -0.004240374, 0.2630397, -0.3681257, -9.884435, 0, 0, 31.54294, 1, 1
IMU2, 82333261, 0.003278516, 0.007550675, -0.01215671, 0.3667185, -0.437046, -9.704498, 0, 0, 34.875, 1, 1
ATT, 82334541, 0.00, 2.09, 0.00, 2.23, 342.24, 342.24, 0.21, 0.02
EKF1, 82334558, 2.09, 2.23, 342.24, 0.1337329, 0.00441975, -0.02920076, 0.3598829, 0.140906, -1.338643, 0.00, 0.00, 0.00
EKF2, 82334564, 49, -7, 2, 0.00, 0.00, 288, 22, 378, 0, 0, 0
EKF3, 82334568, 0.22, 0.01, -0.01, -0.28, 0.00, 0.04, 0, -1, -2, 0.00
EKF4, 82334592, 0.04, 0.05, 0.00, 0.00, 0.01, 0.01, 0.00, 0, 0, 0, 16, 9023
AHR2, 82334601, 2.93, 2.83, 341.79, 955.4, 39.8761118, 32.6500093
POS, 82334626, 39.8761099, 32.6500092, 955.35, 1.338643
RATE, 82334631, 9.1607, 9.1607, 1, 38.80953, 38.80953, 0, -21.31175, -21.31175, -2, -1.595306, -1.595306, 85
MOTB, 82334644, 1, 1, 0, 1
RCIN, 82334648, 1514, 1514, 1110, 1530, 970, 1497, 970, 1498, 0, 0, 0, 0, 0, 0
RCOU, 82334759, 1178, 1178, 1178, 1178, 0, 0, 0, 0, 0, 0, 0, 0
NTUN, 82334813, 35.98829, 14.0906, 35.98829, 14.0906, 0, 0, 13.37329, 0.441975, -25.42909, 45.79338
VIBE, 82334817, 0.1413583, 0.1997616, 0.2871771, 0, 0, 0
IMU, 82351637, -0.005232921, 0.005622431, 0.02608834, 0.5263202, -0.5261876, -9.830615, 0, 0, 31.45429, 1, 1
IMU2, 82351637, -0.004983368, 0.006257937, 0.02896085, 0.6755418, -0.5112088, -9.736804, 0, 0, 34.875, 1, 1
IMU, 82371639, 0.001612898, 0.003418254, 0.02820052, 0.4520164, -0.5838745, -9.845018, 0, 0, 31.45429, 1, 1
IMU2, 82371639, 0.0008834125, 0.0002832205, 0.03894899, 0.5017521, -0.6181738, -9.687033, 0, 0, 34.75, 1, 1
IMU, 82391606, 0.002840034, 0.002752066, 0.006346288, 0.4698313, -0.5120028, -9.846893, 0, 0, 31.40997, 1, 1
IMU2, 82391606, 0.002968853, 0.0004783759, 0.01572661, 0.5281457, -0.4920809, -9.735645, 0, 0, 34.875, 1, 1
IMU, 82411708, -0.00227495, 0.001950774, -0.01427968, 0.4381633, -0.5811135, -9.869614, 0, 0, 31.45429, 1, 1
IMU2, 82411708, -0.003745384, 0.003053786, -0.01355315, 0.5185963, -0.6149361, -9.725742, 0, 0, 35, 1, 1
CURR, 82429075, 85, 0, 0, 5347, 0, 0
POWR, 82429079, 5.34, 0.02, 1
MAG, 82429142, 253, 128, 382, -107, -11, -57, 0, 0, 0, 1
MAG2, 82429146, 239, 108, 426, -111, -102, -113, 0, 0, 0, 1
BARO, 82433425, 1.249011, 90998.51, 34.14, -0.0519682
CTUN, 82433435, 0, 0, 85, 1.343096, 1.343096, 1.24, 0.00, 0.00, 3, 2
IMU, 82433636, 0.001838969, -0.001052757, -0.01831089, 0.563371, -0.602053, -9.821283, 0, 0, 31.49862, 1, 1
IMU2, 82433636, 0.0008377495, 0.0009064312, -0.02185436, 0.6444789, -0.603582, -9.792214, 0, 0, 34.875, 1, 1
ATT, 82435431, 0.00, 2.09, 0.00, 2.24, 342.27, 342.27, 0.21, 0.02
EKF1, 82435448, 2.09, 2.24, 342.27, 0.145007, -0.009435332, -0.03108047, 0.3846451, 0.140752, -1.343096, 0.00, 0.00, 0.00
EKF2, 82435454, 49, -7, 2, 0.00, 0.00, 288, 22, 378, 0, 0, 0
EKF3, 82435458, 0.22, 0.01, -0.01, -0.28, 0.00, -0.09, -1, 0, 0, 0.00
EKF4, 82435482, 0.04, 0.05, 0.00, 0.00, 0.00, 0.00, 0.00, 0, 0, 0, 16, 9023
AHR2, 82435491, 2.90, 2.93, 341.84, 955.2599, 39.8761118, 32.6500093
POS, 82435516, 39.8761101, 32.6500092, 955.36, 1.343096
RATE, 82435521, 14.70866, 14.70866, -1, -4.342636, -4.342636, 0, -110.4451, -110.4451, 2, 3.151512, 3.151512, 85
MOTB, 82435607, 1, 1, 0, 1
RCIN, 82435611, 1514, 1514, 1110, 1530, 969, 1498, 970, 1497, 0, 0, 0, 0, 0, 0
RCOU, 82435677, 1178, 1178, 1178, 1178, 0, 0, 0, 0, 0, 0, 0, 0
NTUN, 82435741, 38.46451, 14.0752, 38.46451, 14.0752, 0, 0, 14.5007, -0.9435332, -25.63519, 45.83337
VIBE, 82435745, 0.1310697, 0.1628615, 0.2933254, 0, 0, 0
UBX3, 82449667, 0, 1.964, 4.205, 0.56
GPS, 82449676, 3, 386191200, 1918, 7, 1.18, 39.8761117, 32.6500092, 0.03, 952.81, 0.04, 0.00, -0.14, 1
IMU, 82452968, 0.003310001, -0.008409884, -0.01001841, 0.4546805, -0.4517222, -9.807395, 0, 0, 31.54294, 1, 1
IMU2, 82452968, 0.003477483, -0.005205176, -0.01401471, 0.4706779, -0.3832529, -9.655665, 0, 0, 34.875, 1, 1
IMU, 82472163, -0.00926656, -0.01285001, 0.007536429, 0.3511035, -0.4966592, -9.873561, 0, 0, 31.45429, 1, 1
IMU2, 82472163, -0.008160314, -0.01382395, 0.008517139, 0.4554349, -0.4900247, -9.791144, 0, 0, 35, 1, 1
IMU, 82492233, 0.003267343, -0.009453997, 0.01284865, 0.3227422, -0.62854, -9.873097, 0, 0, 31.49862, 1, 1
IMU2, 82492233, -0.0001197887, -0.01108977, 0.01467777, 0.3536207, -0.6160346, -9.790694, 0, 0, 34.75, 1, 1
IMU, 82512159, 0.007141939, 0.001313383, 0.009949235, 0.5112123, -0.6038947, -9.857658, 0, 0, 31.58726, 1, 1
IMU2, 82512159, 0.008783899, -0.0003051403, 0.0135267, 0.5568522, -0.5886515, -9.644084, 0, 0, 34.875, 1, 1
CURR, 82529747, 85, 0, 0, 5349, 0, 0
POWR, 82529751, 5.34, 0.02, 1
MAG, 82529778, 251, 128, 384, -107, -11, -57, 0, 0, 0, 1
MAG2, 82529782, 240, 110, 427, -111, -102, -113, 0, 0, 0, 1
BARO, 82533894, 1.334484, 90997.63, 34.13, -0.263054
CTUN, 82533903, 0, 0, 85, 1.343707, 1.343707, 1.33, 0.00, 0.00, 3, 2
IMU, 82533979, -0.002516351, 0.00233369, -0.006169409, 0.312386, -0.3846867, -9.907712, 0, 0, 31.49862, 1, 1
IMU2, 82533979, 0.001927596, 0.002716128, -0.005609845, 0.395743, -0.3720173, -9.693033, 0, 0, 34.875, 1, 1
ATT, 82535236, 0.00, 2.09, 0.00, 2.20, 342.28, 342.28, 0.18, 0.02
EKF1, 82535252, 2.09, 2.20, 342.28, 0.149391, -0.01254881, -0.03074908, 0.4106688, 0.1384056, -1.343819, 0.00, 0.00, 0.00
EKF2, 82535258, 51, -7, 2, 0.00, 0.00, 288, 22, 378, 0, 0, 0
EKF3, 82535263, 0.10, 0.04, 0.11, -0.22, 0.00, 0.00, 0, 0, -1, 0.00
EKF4, 82535286, 0.03, 0.04, 0.00, 0.00, 0.00, 0.00, 0.00, 0, 0, 0, 16, 9023
AHR2, 82535296, 2.89, 2.84, 341.87, 955.35, 39.8761117, 32.6500092
POS, 82535320, 39.8761103, 32.6500092, 955.36, 1.343819
RATE, 82535325, -14.64628, -14.64628, 1, 20.05294, 20.05294, 0, -43.03467, -43.03467, 2, 2.64473, 2.64473, 85
MOTB, 82535338, 1, 1, 0, 1
RCIN, 82535342, 1513, 1514, 1110, 1530, 970, 1497, 970, 1498, 0, 0, 0, 0, 0, 0
RCOU, 82535408, 1178, 1178, 1178, 1178, 0, 0, 0, 0, 0, 0, 0, 0
NTUN, 82535426, 41.06688, 13.84056, 41.06688, 13.84056, 0, 0, 14.9391, -1.254881, -25.1442, 45.63434
VIBE, 82535465, 0.140688, 0.1913607, 0.2898247, 0, 0, 0
IMU, 82552252, -0.00778452, 0.0120476, -0.01401834, 0.3776301, -0.6427723, -9.842569, 0, 0, 31.49862, 1, 1
IMU2, 82552252, -0.008829964, 0.009749186, -0.01422789, 0.3649786, -0.6453846, -9.780085, 0, 0, 35, 1, 1
IMU, 82572186, 0.006308989, 0.007505456, -0.007122456, 0.4491045, -0.5517688, -9.962329, 0, 0, 31.49862, 1, 1
IMU2, 82572186, 0.0007043055, 0.008922094, -0.01059943, 0.490614, -0.6074913, -9.879191, 0, 0, 35, 1, 1
IMU, 82592250, 0.001656136, 0.001395139, 0.00894961, 0.5960016, -0.5060987, -9.837043, 0, 0, 31.49862, 1, 1
IMU2, 82592250, -0.001149797, 0.004226568, 0.0130727, 0.6743573, -0.5142982, -9.651025, 0, 0, 34.875, 1, 1
IMU, 82612125, -0.0004061795, -0.01215103, 0.008283935, 0.3491174, -0.4462007, -9.909166, 0, 0, 31.40997, 1, 1
IMU2, 82612125, 0.002143776, -0.01270743, 0.008092686, 0.4754101, -0.4507653, -9.724489, 0, 0, 34.875, 1, 1
CURR, 82629692, 85, 0, 0, 5333, 0, 0
POWR, 82629696, 5.33, 0.02, 1
MAG, 82629726, 252, 129, 384, -107, -11, -57, 0, 0, 0, 1
MAG2, 82629730, 239, 110, 428, -111, -102, -113, 0, 0, 0, 1
BARO, 82634040, 1.408929, 90996.86, 34.14, -0.311352
CTUN, 82634049, 0, 0, 85, 1.348021, 1.348021, 1.40, 0.00, 0.00, 2, 2
IMU, 82634152, -0.001401419, -0.007960896, 0.00541952, 0.3813589, -0.6109946, -9.863664, 0, 0, 31.58726, 1, 1
IMU2, 82634152, -0.002228335, -0.007562415, 0.00583406, 0.4533963, -0.6842952, -9.722333, 0, 0, 35, 1, 1
ATT, 82635504, 0.00, 2.08, 0.00, 2.20, 342.29, 342.29, 0.18, 0.02
EKF1, 82635520, 2.08, 2.20, 342.29, 0.158723, -0.02639946, -0.02952584, 0.4373433, 0.1349629, -1.348217, 0.00, 0.00, 0.00
EKF2, 82635526, 51, -7, 2, 0.00, 0.00, 288, 22, 378, 0, 0, 0
EKF3, 82635531, 0.10, 0.04, 0.11, -0.22, 0.00, 0.06, 0, 0, -1, 0.00
EKF4, 82635554, 0.03, 0.04, 0.00, 0.00, 0.00, 0.00, 0.00, 0, 0, 0, 16, 9023
AHR2, 82635563, 2.89, 2.76, 341.89, 955.42, 39.8761117, 32.6500092
POS, 82635588, 39.8761106, 32.6500091, 955.36, 1.348217
RATE, 82635593, -1.343131, -1.343131, -1, -53.70557, -53.70557, 1, 21.07487, 21.07487, 0, -1.740551, -1.740551, 85
MOTB, 82635606, 1, 1, 0, 1
RCIN, 82635610, 1514, 1514, 1110, 1530, 970, 1497, 970, 1497, 0, 0, 0, 0, 0, 0
RCOU, 82635676, 1178, 1178, 1178, 1178, 0, 0, 0, 0, 0, 0, 0, 0
NTUN, 82635694, 43.73433, 13.49629, 43.73433, 13.49629, 0, 0, 15.8723, -2.639946, -25.0202, 45.51993
VIBE, 82635697, 0.1497062, 0.1637024, 0.3288707, 0, 0, 0
UBX3, 82650066, 0, 1.962, 4.204, 0.57
GPS, 82650110, 3, 386191400, 1918, 7, 1.18, 39.8761116, 32.6500093, 0.03, 952.75, 0.08, 0.00, -0.36, 1
IMU, 82653459, -0.0001837271, -0.006928319, -0.004018717, 0.4361382, -0.4727135, -9.869284, 0, 0, 31.58726, 1, 1
IMU2, 82653459, -0.0002834873, -0.008522893, -0.00412359, 0.5061436, -0.5350162, -9.729444, 0, 0, 35, 1, 1
IMU, 82672614, -0.002206333, -0.003432167, -0.01184598, 0.4753327, -0.559093, -9.829863, 0, 0, 31.40997, 1, 1
IMU2, 82672614, -0.002822296, -0.002369643, -0.01073334, 0.5468449, -0.6422716, -9.714641, 0, 0, 35, 1, 1
IMU, 82692714, -0.001406506, 0.004712274, -0.008127186, 0.1653854, -0.5174516, -9.816463, 0, 0, 31.49862, 1, 1
IMU2, 82692714, 0.001986183, 0.001254324, -0.01111275, 0.30361, -0.4834278, -9.653675, 0, 0, 34.875, 1, 1
IMU, 82712619, 0.005234598, 0.007984088, 0.007497402, 0.3564719, -0.5599599, -9.876793, 0, 0, 31.54294, 1, 1
IMU2, 82712619, 0.003104985, 0.01261601, 0.003794098, 0.4786695, -0.568745, -9.770045, 0, 0, 35, 1, 1
CURR, 82730218, 85, 0, 0, 5341, 0, 0
POWR, 82730222, 5.34, 0.02, 1
MAG, 82730251, 252, 129, 382, -107, -11, -57, 0, 0, 0, 1
MAG2, 82730255, 240, 112, 428, -111, -102, -113, 0, 0, 0, 1
BARO, 82734202, 1.282098, 90998.16, 34.16, -0.09985971
CTUN, 82734212, 0, 0, 85, 1.358316, 1.358316, 1.28, 0.00, 0.00, 3, 3
IMU, 82734285, 0.0002721847, 0.0109287, 0.0145318, 0.5967155, -0.5157911, -9.833051, 0, 0, 31.54294, 1, 1
IMU2, 82734285, 0.002076916, 0.01175499, 0.01430109, 0.6405402, -0.5423329, -9.71815, 0, 0, 35, 1, 1
ATT, 82735552, 0.00, 2.09, 0.00, 2.21, 342.29, 342.29, 0.15, 0.02
EKF1, 82735568, 2.09, 2.21, 342.29, 0.166638, -0.03380251, -0.03543266, 0.4627541, 0.1317271, -1.358453, 0.00, 0.00, 0.00
EKF2, 82735575, 53, -7, 2, 0.00, 0.00, 288, 22, 378, 0, 0, 0
EKF3, 82735579, 0.06, 0.01, 0.33, -0.16, 0.00, -0.06, 0, -1, 0, 0.00
EKF4, 82735603, 0.06, 0.03, 0.00, 0.00, 0.00, 0.00, 0.00, 0, 0, 0, 16, 9023
AHR2, 82735647, 2.89, 2.74, 341.91, 955.3, 39.8761116, 32.6500093
POS, 82735672, 39.8761108, 32.6500091, 955.37, 1.358453
RATE, 82735677, 3.910361, 3.910361, 0, 67.59094, 67.59094, 0, 78.79215, 78.79215, -2, 2.642536, 2.642536, 85
MOTB, 82735689, 1, 1, 0, 1
RCIN, 82735693, 1513, 1514, 1110, 1530, 970, 1497, 970, 1498, 0, 0, 0, 0, 0, 0
RCOU, 82735814, 1178, 1178, 1178, 1178, 0, 0, 0, 0, 0, 0, 0, 0
NTUN, 82735832, 46.27541, 13.17271, 46.27541, 13.17271, 0, 0, 16.6638, -3.380251, -25.31037, 45.65786
VIBE, 82735836, 0.1608075, 0.1367925, 0.3504077, 0, 0, 0
IMU, 82752681, 0.0002547019, 0.005636799, 0.004359586, 0.2887479, -0.5216839, -9.949892, 0, 0, 31.45429, 1, 1
IMU2, 82752681, -0.001745719, 0.007775609, 0.007457367, 0.3858311, -0.5953632, -9.68311, 0, 0, 35, 1, 1
IMU, 82772637, -0.004198506, 0.007124885, -0.006783415, 0.3858522, -0.5651706, -9.96256, 0, 0, 31.54294, 1, 1
IMU2, 82772637, -0.006334494, 0.01073926, -0.002928693, 0.450167, -0.5731195, -9.711666, 0, 0, 35, 1, 1
IMU, 82792870, 0.002524296, -0.0005050038, -0.004531418, 0.598379, -0.5892357, -9.9023, 0, 0, 31.54294, 1, 1
IMU2, 82792870, 0.001292819, 0.0007857025, -0.005353857, 0.6821175, -0.6163828, -9.783257, 0, 0, 35, 1, 1
IMU, 82812708, 0.004084995, -0.007073427, -0.007556724, 0.5373231, -0.5581751, -9.856609, 0, 0, 31.54294, 1, 1
IMU2, 82812708, 0.001306134, -0.001635085, -0.009922183, 0.5812814, -0.5023216, -9.781933, 0, 0, 35, 1, 1
CURR, 82830198, 85, 0, 0, 5362, 0, 0
POWR, 82830202, 5.36, 0.02, 1
MAG, 82830231, 252, 128, 383, -107, -11, -57, 0, 0, 0, 1
MAG2, 82830235, 240, 112, 427, -111, -102, -113, 0, 0, 0, 1
DU32, 82830282, 7, 386524
BARO, 82834476, 1.339999, 90997.57, 34.15, 0.1033945
CTUN, 82834486, 0, 0, 85, 1.363689, 1.363689, 1.33, 0.00, 0.00, 3, 3
IMU, 82834596, -0.003793008, -0.0107214, -0.001034173, 0.3139575, -0.4375668, -9.772563, 0, 0, 31.63158, 1, 1
IMU2, 82834596, -0.003066766, -0.01029861, -0.005855927, 0.3189179, -0.3573362, -9.607306, 0, 0, 35, 1, 1
ATT, 82836256, 0.00, 2.08, 0.00, 2.21, 342.27, 342.27, 0.15, 0.02
EKF1, 82836272, 2.08, 2.21, 342.27, 0.1724263, -0.04066273, -0.03636551, 0.4886787, 0.1278127, -1.363894, 0.00, 0.00, 0.00
EKF2, 82836279, 53, -7, 2, 0.00, 0.00, 288, 22, 378, 0, 0, 0
EKF3, 82836283, 0.06, 0.01, 0.33, -0.16, 0.00, -0.02, 0, 0, 0, 0.00
EKF4, 82836306, 0.06, 0.03, 0.00, 0.00, 0.00, 0.00, 0.00, 0, 0, 0, 16, 9023
AHR2, 82836316, 2.89, 2.72, 341.90, 955.36, 39.8761116, 32.6500093
POS, 82836376, 39.876111, 32.650009, 955.38, 1.363894
RATE, 82836381, -25.03942, -25.03942, 0, -47.75399, -47.75399, -2, -11.89492, -11.89492, 0, -5.157089, -5.157089, 85
MOTB, 82836393, 1, 1, 0, 1
RCIN, 82836397, 1516, 1516, 1110, 1532, 970, 1497, 970, 1497, 0, 0, 0, 0, 0, 0
RCOU, 82836507, 1178, 1178, 1178, 1178, 0, 0, 0, 0, 0, 0, 0, 0
NTUN, 82836525, 48.86787, 12.78127, 48.86787, 12.78127, 0, 0, 17.24263, -4.066273, -25.27954, 45.5512
VIBE, 82836529, 0.1853138, 0.1350057, 0.4996394, 0, 0, 0
UBX3, 82850540, 0, 1.966, 4.212, 0.63
GPS, 82850548, 3, 386191600, 1918, 7, 1.18, 39.8761116, 32.6500093, 0.05, 952.75, 0.09, 0.00, -0.61, 1
IMU, 82854082, 0.002267674, -0.0107026, 0.0088495, 0.3152983, -0.6450727, -9.85313, 0, 0, 31.40997, 1, 1
IMU2, 82854082, -0.0004249396, -0.007837324, 0.007139669, 0.362131, -0.6258358, -9.712207, 0, 0, 35, 1, 1
IMU, 82873164, 0.002741785, 0.0003069536, 0.002655722, 0.5667207, -0.4876609, -9.907365, 0, 0, 31.49862, 1, 1
IMU2, 82873164, 0.003184265, -0.002034868, 0.007639402, 0.6809372, -0.48408, -9.833343, 0, 0, 35, 1, 1
IMU, 82893091, 0.0006082506, -0.002381212, -0.004718943, 0.3262357, -0.5537087, -9.923739, 0, 0, 31.58726, 1, 1
IMU2, 82893091, 0.0007558547, -0.0001542755, -0.004778286, 0.3702011, -0.507302, -9.854408, 0, 0, 35, 1, 1
IMU, 82913073, -0.00422962, 0.01239919, -0.004397521, 0.1708067, -0.5309338, -9.875928, 0, 0, 31.49862, 1, 1
IMU2, 82913073, -0.005916474, 0.01805115, -0.00762356, 0.1749532, -0.5430104, -9.710474, 0, 0, 35, 1, 1
CURR, 82930624, 85, 0, 0, 5333, 0, 0
POWR, 82930628, 5.33, 0.02, 1
MAG, 82930662, 254, 128, 381, -107, -11, -57, 0, 0, 0, 1
MAG2, 82930666, 240, 111, 423, -111, -102, -113, 0, 0, 0, 1
BARO, 82934879, 1.273826, 90998.25, 34.16, -0.001543685
CTUN, 82934889, 0, 0, 85, 1.374975, 1.374975, 1.27, 0.00, 0.00, 3, 4
IMU, 82935050, 0.004336478, 0.009718851, 0.002337595, 0.6806251, -0.5877942, -9.765126, 0, 0, 31.49862, 1, 1
IMU2, 82935050, 0.004210268, 0.01211981, 0.001330295, 0.7285454, -0.5809017, -9.683923, 0, 0, 35, 1, 1
ATT, 82936699, 0.00, 2.08, 0.00, 2.23, 342.28, 342.28, 0.12, 0.02
EKF1, 82936716, 2.08, 2.23, 342.28, 0.1791101, -0.05151641, -0.04078031, 0.5121494, 0.1227417, -1.375206, 0.00, 0.00, 0.00
EKF2, 82936722, 53, -7, 2, 0.00, 0.00, 288, 22, 378, 0, 0, 0
EKF3, 82936730, 0.07, 0.04, 0.57, -0.11, 0.00, -0.09, -1, 0, 1, 0.00
EKF4, 82936823, 0.11, 0.02, 0.00, 0.01, 0.00, 0.00, 0.00, 0, 0, 0, 16, 9023
AHR2, 82936839, 2.87, 2.72, 341.92, 955.29, 39.8761116, 32.6500093
POS, 82936864, 39.8761113, 32.650009, 955.39, 1.375206
RATE, 82936869, 23.33503, 23.33503, 0, 70.0674, 70.0674, -1, 7.838352, 7.838352, 0, -9.822083, -9.822083, 85
MOTB, 82936881, 1, 1, 0, 1
RCIN, 82936885, 1514, 1514, 1110, 1530, 970, 1497, 970, 1497, 0, 0, 0, 0, 0, 0
RCOU, 82936957, 1178, 1178, 1178, 1178, 0, 0, 0, 0, 0, 0, 0, 0
NTUN, 82936975, 51.21494, 12.27417, 51.21494, 12.27417, 0, 0, 17.91101, -5.151641, -25.4859, 45.69971
VIBE, 82936979, 0.2388195, 0.1547704, 0.4716328, 0, 0, 0
RAD, 82943617, 65, 66, 83, 18, 33, 3, 23
RAD, 82945888, 65, 66, 83, 18, 33, 3, 23
IMU, 82953522, -0.001209461, 0.003181345, 0.0003709675, 0.3885587, -0.4682898, -9.901663, 0, 0, 31.49862, 1, 1
IMU2, 82953522, -0.001948487, 0.00835418, 0.000302658, 0.5718871, -0.4439759, -9.795753, 0, 0, 35, 1, 1
IMU, 82973517, -0.004173833, 0.002080793, 0.001474187, 0.4263285, -0.5481906, -9.758105, 0, 0, 31.49862, 1, 1
IMU2, 82973517, -0.0035889, 0.004504662, 0.00360234, 0.4801925, -0.5474638, -9.700125, 0, 0, 35, 1, 1
IMU, 82993566, 0.005701304, -0.004106873, 0.008368691, 0.3854954, -0.6183768, -9.898164, 0, 0, 31.49862, 1, 1
IMU2, 82993566, 0.007252432, -0.0007403402, 0.0106964, 0.3988723, -0.6266476, -9.863054, 0, 0, 35, 1, 1
IMU, 83013617, 0.001238561, -0.001740076, -0.002986686, 0.5416442, -0.5157703, -9.938999, 0, 0, 31.58726, 1, 1
IMU2, 83013617, 0.001253007, -0.0001687083, -0.003005729, 0.5907893, -0.5251888, -9.82198, 0, 0, 35, 1, 1
CURR, 83031199, 85, 0, 0, 5347, 0, 0
POWR, 83031203, 5.34, 0.02, 1
MAG, 83031275, 253, 128, 383, -107, -11, -57, 0, 0, 0, 1
MAG2, 83031279, 240, 112, 429, -111, -102, -113, 0, 0, 0, 1
BARO, 83035135, 1.202139, 90999, 34.16, -0.197936
CTUN, 83035144, 0, 0, 85, 1.384242, 1.384242, 1.20, 0.00, 0.00, 4, 4
IMU, 83035221, -0.007996803, -0.007471413, -0.007373223, 0.4351431, -0.4306574, -9.799979, 0, 0, 31.49862, 1, 1
IMU2, 83035221, -0.004966468, -0.007562162, -0.008692401, 0.451342, -0.4054506, -9.660245, 0, 0, 34.75, 1, 1
ATT, 83036571, 0.00, 2.08, 0.00, 2.22, 342.28, 342.28, 0.12, 0.02
EKF1, 83036678, 2.08, 2.22, 342.28, 0.1847113, -0.06000025, -0.04654974, 0.5360174, 0.1167311, -1.384393, 0.00, 0.00, 0.00
EKF2, 83036685, 53, -7, 2, 0.00, 0.00, 288, 22, 378, 0, 0, 0
EKF3, 83036689, 0.07, 0.04, 0.57, -0.11, 0.00, -0.17, -1, 0, 0, 0.00
EKF4, 83036713, 0.11, 0.02, 0.01, 0.00, 0.00, 0.00, 0.00, 0, 0, 0, 16, 9023
AHR2, 83036722, 2.83, 2.71, 341.93, 955.22, 39.8761116, 32.6500093
POS, 83036747, 39.8761115, 32.6500089, 955.4, 1.384393
RATE, 83036751, -33.91291, -33.91291, -1, -37.40166, -37.40166, -1, -46.08173, -46.08173, 1, -9.389877, -9.389877, 85
MOTB, 83036764, 1, 1, 0, 1
RCIN, 83036768, 1516, 1517, 1110, 1532, 970, 1497, 970, 1498, 0, 0, 0, 0, 0, 0
RCOU, 83036835, 1178, 1178, 1178, 1178, 0, 0, 0, 0, 0, 0, 0, 0
NTUN, 83036889, 53.60174, 11.67311, 53.60174, 11.67311, 0, 0, 18.47113, -6.000025, -25.3715, 45.55884
VIBE, 83036892, 0.2535766, 0.1916065, 0.5177849, 0, 0, 0
UBX3, 83051093, 0, 1.969, 4.214, 0.57
GPS, 83051102, 3, 386191800, 1918, 7, 1.18, 39.8761116, 32.6500092, 0.07, 952.79, 0.12, 0.00, -0.61, 1
IMU, 83054763, 0.0005671485, -0.00250464, -0.002632582, 0.1011568, -0.6386431, -9.877554, 0, 0, 31.49862, 1, 1
IMU2, 83054763, -0.001022684, -0.001257332, -0.007235738, 0.1884475, -0.6078638, -9.705295, 0, 0, 35, 1, 1
IMU, 83073520, 0.005617073, -0.002968059, 0.0001364127, 0.6150483, -0.614719, -9.840285, 0, 0, 31.54294, 1, 1
IMU2, 83073520, 0.006025796, -0.003140775, 0.004838342, 0.5913594, -0.5708656, -9.740849, 0, 0, 34.75, 1, 1
IMU, 83093556, -0.004174558, -0.001541575, 0.003025598, 0.4025712, -0.3398099, -9.923187, 0, 0, 31.54294, 1, 1
IMU2, 83093556, -0.003340322, 0.001310088, 0.001944342, 0.5510191, -0.3801993, -9.856158, 0, 0, 35, 1, 1
IMU, 83113569, 0.0002604342, 0.002048757, 0.003405174, 0.2177611, -0.7017597, -9.864076, 0, 0, 31.45429, 1, 1
IMU2, 83113569, 0.000140766, 0.01341918, 0.001161951, 0.2717208, -0.6701723, -9.73116, 0, 0, 35, 1, 1
CURR, 83131048, 85, 0, 0, 5335, 0, 0
POWR, 83131052, 5.33, 0.02, 1
MAG, 83131090, 252, 129, 384, -107, -11, -57, 0, 0, 0, 1
MAG2, 83131094, 239, 111, 429, -111, -102, -113, 0, 0, 0, 1
BARO, 83135016, 1.326213, 90997.72, 34.17, -0.2733435
CTUN, 83135026, 0, 0, 85, 1.390183, 1.390183, 1.32, 0.00, 0.00, 4, 5
IMU, 83135166, 0.001502604, 0.004391456, 0.004272814, 0.5616732, -0.508539, -9.838108, 0, 0, 31.45429, 1, 1
IMU2, 83135166, 0.00123863, 0.009299021, 0.007805306, 0.6803367, -0.5040624, -9.715786, 0, 0, 35, 1, 1
ATT, 83136492, 0.00, 2.08, 0.00, 2.23, 342.30, 342.30, 0.10, 0.02
EKF1, 83136508, 2.08, 2.23, 342.30, 0.1862434, -0.06780372, -0.04971291, 0.5571949, 0.1109773, -1.390469, 0.00, 0.00, 0.00
EKF2, 83136515, 54, -7, 2, 0.00, 0.00, 288, 22, 378, 0, 0, 0
EKF3, 83136519, 0.06, 0.00, 0.57, -0.05, 0.00, -0.06, 0, -1, -1, 0.00
EKF4, 83136596, 0.11, 0.01, 0.00, 0.00, 0.00, 0.00, 0.00, 0, 0, 0, 16, 9023
AHR2, 83136606, 2.85, 2.71, 341.96, 955.34, 39.8761116, 32.6500092
POS, 83136630, 39.8761117, 32.6500088, 955.41, 1.390469
RATE, 83136635, 12.29106, 12.29106, 0, 37.73476, 37.73476, 0, 21.13901, 21.13901, 0, -7.524681, -7.524681, 85
MOTB, 83136648, 1, 1, 0, 1
RCIN, 83136652, 1514, 1514, 1110, 1530, 970, 1497, 970, 1497, 0, 0, 0, 0, 0, 0
RCOU, 83136718, 1178, 1178, 1178, 1178, 0, 0, 0, 0, 0, 0, 0, 0
NTUN, 83136736, 55.71949, 11.09773, 55.71949, 11.09773, 0, 0, 18.62434, -6.780372, -25.5312, 45.69728
VIBE, 83136740, 0.2955452, 0.2410607, 0.4915861, 0, 0, 0
IMU, 83153545, -0.001203088, 0.001617531, -0.005048489, 0.4373277, -0.4178249, -9.902925, 0, 0, 31.54294, 1, 1
IMU2, 83153545, 0.001841496, 0.00534445, -0.006532895, 0.5108828, -0.5144168, -9.691486, 0, 0, 35, 1, 1
IMU, 83173506, -0.001185556, 3.504192E-05, -0.00323686, 0.3645566, -0.7035683, -9.846528, 0, 0, 31.54294, 1, 1
IMU2, 83173506, -0.003322111, 0.005367951, -0.004324841, 0.4039945, -0.7716777, -9.821845, 0, 0, 35, 1, 1
IMU, 83193559, 0.002784955, -0.004078814, 0.003562261, 0.4736611, -0.4963072, -9.900807, 0, 0, 31.54294, 1, 1
IMU2, 83193559, 0.003491261, 0.0007720413, 0.001339571, 0.5932914, -0.5032462, -9.816723, 0, 0, 34.75, 1, 1
IMU, 83213463, 0.001026254, -0.004576744, 0.0002316938, 0.4337859, -0.5056832, -9.901713, 0, 0, 31.54294, 1, 1
IMU2, 83213463, 0.004262861, -0.002437403, 0.001600354, 0.4829583, -0.4830963, -9.714192, 0, 0, 35, 1, 1
CURR, 83231435, 85, 0, 0, 5335, 0, 0
POWR, 83231439, 5.33, 0.02, 1
MAG, 83231466, 253, 128, 383, -107, -11, -57, 0, 0, 0, 1
MAG2, 83231470, 240, 111, 429, -111, -102, -113, 0, 0, 0, 1
BARO, 83235193, 1.326213, 90997.71, 34.17, -0.1851338
CTUN, 83235203, 0, 0, 85, 1.401863, 1.401863, 1.32, 0.00, 0.00, 5, 5
IMU, 83235280, -0.003807491, -0.00338297, -0.0018975, 0.3469936, -0.4584674, -9.844303, 0, 0, 31.54294, 1, 1
IMU2, 83235280, -0.004942411, 0.0007134723, -0.003973954, 0.439007, -0.4643058, -9.602018, 0, 0, 35, 1, 1
ATT, 83236626, 0.00, 2.08, 0.00, 2.23, 342.30, 342.30, 0.10, 0.02
EKF1, 83236642, 2.08, 2.23, 342.30, 0.1887154, -0.07435062, -0.05580714, 0.5782214, 0.104621, -1.402154, 0.00, 0.00, 0.00
EKF2, 83236649, 54, -7, 2, 0.00, 0.00, 288, 22, 378, 0, 0, 0
EKF3, 83236653, 0.06, 0.00, 0.57, -0.05, 0.00, -0.06, -1, 0, -1, 0.00
EKF4, 83236677, 0.11, 0.01, 0.00, 0.00, 0.00, 0.00, 0.00, 0, 0, 0, 16, 9023
AHR2, 83236721, 2.86, 2.69, 341.97, 955.34, 39.8761116, 32.6500092
POS, 83236753, 39.8761118, 32.6500088, 955.42, 1.402154
RATE, 83236758, -25.14631, -25.14631, 0, -9.944361, -9.944361, 0, -5.957244, -5.957244, 0, -7.426071, -7.426071, 85
MOTB, 83236771, 1, 1, 0, 1
RCIN, 83236774, 1514, 1514, 1110, 1529, 970, 1498, 970, 1497, 0, 0, 0, 0, 0, 0
RCOU, 83236841, 1178, 1178, 1178, 1178, 0, 0, 0, 0, 0, 0, 0, 0
NTUN, 83236859, 57.82214, 10.4621, 57.82214, 10.4621, 0, 0, 18.87154, -7.435062, -25.53069, 45.62384
VIBE, 83236863, 0.189813, 0.2201466, 0.3591628, 0, 0, 0
UBX3, 83251042, 0, 1.978, 4.23, 0.74
GPS, 83251050, 3, 386192000, 1918, 7, 1.18, 39.8761119, 32.6500092, 0.09, 952.88, 0.19, 0.00, -0.44, 1
IMU, 83254446, 0.001382029, -0.003049513, 0.002531131, 0.475765, -0.6847047, -9.891892, 0, 0, 31.54294, 1, 1
IMU2, 83254446, -0.0007653823, -0.004827021, 0.002606383, 0.4805506, -0.6264987, -9.843415, 0, 0, 34.875, 1, 1
IMU, 83273491, 0.004287307, 0.0025221, -0.002495677, 0.3073243, -0.4785562, -9.827747, 0, 0, 31.54294, 1, 1
IMU2, 83273491, 0.002718849, 0.0009317188, -0.003083169, 0.3594104, -0.4658901, -9.724008, 0, 0, 34.875, 1, 1
IMU, 83293520, -0.002200322, 0.004865874, -0.006132131, 0.3942614, -0.490631, -9.914783, 0, 0, 31.54294, 1, 1
IMU2, 83293520, -3.877539E-05, 0.01020721, -0.006202882, 0.4422852, -0.4556803, -9.695489, 0, 0, 34.875, 1, 1
IMU, 83313534, -0.001979445, 0.0008318328, 0.008707979, 0.5125797, -0.6221085, -9.90566, 0, 0, 31.58726, 1, 1
IMU2, 83313534, -0.002950406, 0.0115472, 0.007756486, 0.5150012, -0.6249987, -9.707206, 0, 0, 34.875, 1, 1
CURR, 83330884, 85, 0, 0, 5351, 0, 0
POWR, 83330888, 5.35, 0.02, 1
MAG, 83330917, 253, 128, 382, -107, -11, -57, 0, 0, 0, 1
MAG2, 83330921, 240, 111, 425, -111, -102, -113, 0, 0, 0, 1
BARO, 83335024, 1.188353, 90999.15, 34.17, 0.03501112
CTUN, 83335034, 0, 0, 85, 1.410716, 1.410716, 1.18, 0.00, 0.00, 5, 5
IMU, 83335140, 0.004153326, 0.0028285, 0.0007372227, 0.3439985, -0.4880015, -9.811261, 0, 0, 31.58726, 1, 1
IMU2, 83335140, 0.002580594, 0.01198809, 0.0004926035, 0.4625839, -0.45337, -9.725922, 0, 0, 34.875, 1, 1
ATT, 83336469, 0.00, 2.09, 0.00, 2.24, 342.30, 342.30, 0.09, 0.02
EKF1, 83336486, 2.09, 2.24, 342.30, 0.1919473, -0.07744756, -0.06014796, 0.6004776, 0.09944548, -1.41075, 0.00, 0.00, 0.00
EKF2, 83336492, 57, -7, 2, 0.00, 0.00, 288, 22, 378, 0, 0, 0
EKF3, 83336496, 0.00, -0.06, 0.39, -0.04, -0.01, -0.21, -1, 0, 0, 0.00
EKF4, 83336562, 0.07, 0.00, 0.02, 0.00, 0.00, 0.00, 0.00, 0, 0, 0, 16, 9023
AHR2, 83336650, 2.90, 2.67, 341.99, 955.2, 39.8761119, 32.6500092
POS, 83336674, 39.876112, 32.6500087, 955.43, 1.41075
RATE, 83336679, 20.28306, 20.28306, 0, 33.51139, 33.51139, 1, 7.849546, 7.849546, 0, -3.321648, -3.321648, 85
MOTB, 83336692, 1, 1, 0, 1
RCIN, 83336696, 1514, 1514, 1110, 1530, 970, 1497, 970, 1497, 0, 0, 0, 0, 0, 0
RCOU, 83336762, 1178, 1178, 1178, 1178, 0, 0, 0, 0, 0, 0, 0, 0
NTUN, 83336780, 60.04776, 9.944548, 60.04776, 9.944548, 0, 0, 19.19473, -7.744756, -25.79745, 45.88031
VIBE, 83336783, 0.2249284, 0.2608071, 0.40598, 0, 0, 0
IMU, 83353483, -0.001098334, 0.001344274, -0.002612997, 0.4394607, -0.5818383, -9.911541, 0, 0, 31.58726, 1, 1
IMU2, 83353483, -0.002041491, 0.004493157, 0.001003764, 0.5736971, -0.586474, -9.74198, 0, 0, 35, 1, 1
IMU, 83373511, -0.004645847, -0.001582177, 0.003334623, 0.4657398, -0.4102668, -9.893965, 0, 0, 31.6759, 1, 1
IMU2, 83373511, -0.005198396, 0.002312601, 0.001505299, 0.5605768, -0.4570718, -9.709658, 0, 0, 34.875, 1, 1
IMU, 83393575, 0.006878536, -0.001839691, -0.004113602, 0.4709304, -0.7379955, -9.890761, 0, 0, 31.58726, 1, 1
IMU2, 83393575, 0.006156397, -0.002349521, -0.003911138, 0.461678, -0.7640737, -9.735349, 0, 0, 35, 1, 1
IMU, 83413565, 0.0009876796, -0.008599361, -0.001787, 0.3029842, -0.4571146, -9.902152, 0, 0, 31.58726, 1, 1
IMU2, 83413565, 0.001795657, -0.004080269, -0.001179882, 0.3970392, -0.460722, -9.788257, 0, 0, 35, 1, 1
CURR, 83431461, 85, 0, 0, 5347, 0, 0
POWR, 83431465, 5.34, 0.02, 1
MAG, 83431494, 252, 129, 384, -107, -11, -57, 0, 0, 0, 1
MAG2, 83431498, 240, 111, 426, -111, -102, -113, 0, 0, 0, 1
BARO, 83435268, 1.146995, 90999.57, 34.19, 0.02707719
CTUN, 83435278, 0, 0, 85, 1.411976, 1.411976, 1.14, 0.00, 0.00, 5, 5
IMU, 83435351, -0.005512741, -7.327801E-05, -0.001289468, 0.3655338, -0.3652261, -9.770243, 0, 0, 31.58726, 1, 1
IMU2, 83435351, -0.003065442, 0.0004172872, -0.003783904, 0.5419455, -0.2843352, -9.617586, 0, 0, 35, 1, 1
ATT, 83437092, 0.00, 2.09, 0.00, 2.23, 342.31, 342.31, 0.09, 0.02
EKF1, 83437113, 2.09, 2.23, 342.31, 0.1993343, -0.08189031, -0.06185731, 0.6236367, 0.09402429, -1.411962, 0.00, 0.00, 0.00
EKF2, 83437119, 57, -8, 2, 0.00, 0.00, 288, 22, 378, 0, 0, 0
EKF3, 83437123, 0.00, -0.06, 0.39, -0.04, -0.01, -0.26, 0, -1, -2, 0.00
EKF4, 83437147, 0.07, 0.00, 0.02, 0.00, 0.00, 0.01, 0.00, 0, 0, 0, 16, 9023
AHR2, 83437156, 2.93, 2.62, 342.00, 955.16, 39.8761119, 32.6500092
POS, 83437181, 39.8761123, 32.6500087, 955.43, 1.411962
RATE, 83437186, -30.93914, -30.93914, 0, -13.80695, -13.80695, 3, 10.72959, 10.72959, 0, -1.888275, -1.888275, 85
MOTB, 83437198, 1, 1, 0, 1
RCIN, 83437202, 1514, 1513, 1111, 1529, 970, 1498, 969, 1498, 0, 0, 0, 0, 0, 0
RCOU, 83437310, 1178, 1178, 1178, 1178, 0, 0, 0, 0, 0, 0, 0, 0
NTUN, 83437327, 62.36367, 9.40243, 62.36367, 9.40243, 0, 0, 19.93343, -8.189031, -25.60977, 45.77514
VIBE, 83437415, 0.1897161, 0.3366788, 0.524644, 0, 0, 0
UBX3, 83451585, 0, 1.985, 4.237, 0.58
GPS, 83451594, 3, 386192200, 1918, 7, 1.18, 39.876112, 32.6500091, 0.10, 952.90, 0.06, 0.00, -0.4, 1
IMU, 83454995, 0.006744488, -0.005593061, 0.005710292, 0.5652717, -0.8948831, -9.893145, 0, 0, 31.58726, 1, 1
IMU2, 83454995, 0.001724087, -0.004751388, 0.005928703, 0.6601268, -0.851589, -9.680189, 0, 0, 35, 1, 1
IMU, 83473890, 0.0001079779, -7.261854E-05, 0.0006137284, 0.2065116, -0.2892223, -9.988184, 0, 0, 31.54294, 1, 1
IMU2, 83473890, 0.003196929, 0.002018878, 0.002180034, 0.3313324, -0.252565, -9.731181, 0, 0, 34.875, 1, 1
IMU, 83493787, -0.006359167, 0.00567509, -0.004445998, 0.4064368, -0.4613844, -9.744747, 0, 0, 31.54294, 1, 1
IMU2, 83493787, -0.004596794, 0.01003982, -0.002064768, 0.5101001, -0.3672487, -9.510728, 0, 0, 35, 1, 1
IMU, 83513877, 0.002750289, 0.002686332, -0.000333553, 0.4806474, -0.8312427, -9.90079, 0, 0, 31.72022, 1, 1
IMU2, 83513877, -0.0004035716, 0.01185144, 0.002751101, 0.6458566, -0.7485078, -9.865785, 0, 0, 35, 1, 1
CURR, 83531369, 85, 0, 0, 5333, 0, 0
POWR, 83531373, 5.33, 0.02, 1
MAG, 83531402, 253, 128, 383, -107, -11, -57, 0, 0, 0, 1
MAG2, 83531406, 240, 110, 426, -111, -102, -113, 0, 0, 0, 1
BARO, 83535359, 1.188353, 90999.13, 34.20, -0.311002
CTUN, 83535369, 0, 0, 85, 1.410408, 1.410408, 1.18, 0.00, 0.00, 5, 5
IMU, 83535443, 0.007765992, 0.004597934, -0.004647784, 0.3766886, -0.3929746, -9.963397, 0, 0, 31.54294, 1, 1
IMU2, 83535443, 0.00857076, 0.009389052, -0.005612987, 0.497755, -0.4519039, -9.797209, 0, 0, 35, 1, 1
ATT, 83536856, 0.00, 2.10, 0.00, 2.26, 342.30, 342.30, 0.09, 0.02
EKF1, 83536872, 2.10, 2.26, 342.30, 0.199458, -0.08843356, -0.05713056, 0.6421098, 0.08771852, -1.410427, 0.00, 0.00, 0.00
EKF2, 83536878, 53, -8, 2, 0.00, 0.00, 288, 22, 378, 0, 0, 0
EKF3, 83536883, 0.14, -0.02, 0.34, -0.01, -0.02, -0.22, -1, 0, 0, 0.00
EKF4, 83536906, 0.07, 0.00, 0.02, 0.00, 0.00, 0.00, 0.00, 0, 0, 0, 16, 9023
AHR2, 83536916, 2.89, 2.69, 342.01, 955.2, 39.876112, 32.6500091
POS, 83536941, 39.8761124, 32.6500086, 955.43, 1.410427
RATE, 83536945, 37.88282, 37.88282, 1, 33.18351, 33.18351, 1, -31.94453, -31.94453, 0, 9.881401, 9.881401, 85
MOTB, 83536958, 1, 1, 0, 1
RCIN, 83536962, 1514, 1514, 1110, 1530, 970, 1497, 970, 1497, 0, 0, 0, 0, 0, 0
RCOU, 83537110, 1178, 1178, 1178, 1178, 0, 0, 0, 0, 0, 0, 0, 0
NTUN, 83537128, 64.21098, 8.771852, 64.21098, 8.771852, 0, 0, 19.9458, -8.843356, -25.96976, 46.09512
VIBE, 83537132, 0.2135746, 0.3818511, 0.5290526, 0, 0, 0
IMU, 83553717, -0.004960824, -0.00159209, 0.004356868, 0.3040479, -0.3878742, -9.844215, 0, 0, 31.54294, 1, 1
IMU2, 83553717, -0.002361352, -0.000713297, 0.001548005, 0.5221177, -0.3291171, -9.540147, 0, 0, 35, 1, 1
IMU, 83573856, -0.003045314, -0.001457234, 0.002537158, 0.3906792, -0.8432658, -9.992199, 0, 0, 31.54294, 1, 1
IMU2, 83573856, -0.008495887, 0.001310864, 0.0005459977, 0.4738947, -0.7625532, -9.810616, 0, 0, 34.875, 1, 1
IMU, 83593871, 0.01089019, 0.001027136, -0.002617144, 0.6160136, -0.5277355, -9.882041, 0, 0, 31.63158, 1, 1
IMU2, 83593871, 0.008970524, 0.001778065, -0.002000425, 0.7103002, -0.50224, -9.702883, 0, 0, 34.875, 1, 1
IMU, 83613899, -0.004508736, -0.003949575, 0.002029923, 0.1610527, -0.2095632, -9.870875, 0, 0, 31.63158, 1, 1
IMU2, 83613899, -0.0005298387, 0.002396091, -0.001108344, 0.1894029, -0.2275607, -9.720787, 0, 0, 34.875, 1, 1
CURR, 83631476, 85, 0, 0, 5330, 0, 0
POWR, 83631480, 5.33, 0.02, 1
MAG, 83631538, 253, 129, 384, -107, -11, -57, 0, 0, 0, 1
MAG2, 83631542, 240, 112, 429, -111, -102, -113, 0, 0, 0, 1
BARO, 83635434, 1.326213, 90997.71, 34.20, -0.4135799
CTUN, 83635444, 0, 0, 85, 1.410459, 1.410459, 1.32, 0.00, 0.00, 5, 5
IMU, 83635517, -0.005435048, 0.00119432, -0.004374621, 0.4174237, -0.9071839, -9.936533, 0, 0, 31.63158, 1, 1
IMU2, 83635517, -0.01054994, 0.002690454, -0.001460133, 0.5277327, -0.8869858, -9.812174, 0, 0, 34.875, 1, 1
ATT, 83636825, 0.00, 2.09, 0.00, 2.27, 342.30, 342.30, 0.09, 0.02
EKF1, 83636841, 2.09, 2.27, 342.30, 0.1990981, -0.0980522, -0.05388116, 0.6598857, 0.08084797, -1.410626, 0.00, 0.00, 0.00
EKF2, 83636890, 53, -8, 2, 0.00, 0.00, 288, 22, 378, 0, 0, 0
EKF3, 83636895, 0.14, -0.02, 0.34, -0.01, -0.02, -0.08, -1, -1, -1, 0.00
EKF4, 83636918, 0.07, 0.00, 0.00, 0.01, 0.00, 0.01, 0.00, 0, 0, 0, 16, 9023
AHR2, 83636928, 2.82, 2.76, 342.02, 955.34, 39.876112, 32.6500091
POS, 83636952, 39.8761126, 32.6500085, 955.43, 1.410626
RATE, 83636957, -34.50717, -34.50717, -2, 14.32595, 14.32595, 0, -25.67169, -25.67169, 0, 6.012154, 6.012154, 85
MOTB, 83636970, 1, 1, 0, 1
RCIN, 83636974, 1514, 1524, 1110, 1525, 970, 1498, 969, 1498, 0, 0, 0, 0, 0, 0
RCOU, 83637106, 1178, 1178, 1178, 1178, 0, 0, 0, 0, 0, 0, 0, 0
NTUN, 83637124, 65.98857, 8.084797, 65.98857, 8.084797, 0, 0, 19.90981, -9.805221, -26.15614, 45.97948
VIBE, 83637128, 0.3687441, 0.3938688, 0.4412003, 0, 0, 0
UBX3, 83651416, 0, 1.985, 4.239, 0.59
GPS, 83651424, 3, 386192400, 1918, 7, 1.18, 39.8761119, 32.650009, 0.10, 952.88, 0.16, 0.00, -0.56, 1
IMU, 83655216, 0.01057005, 0.001442424, 0.001992012, 0.6831606, -0.5148876, -9.778577, 0, 0, 31.54294, 1, 1
IMU2, 83655216, 0.008049284, 0.0001985692, 0.002944266, 0.7659693, -0.5277552, -9.700697, 0, 0, 34.875, 1, 1
IMU, 83673830, -0.001584771, 0.0009074079, -0.001055376, 0.04211351, -0.1417319, -9.87606, 0, 0, 31.58726, 1, 1
IMU2, 83673830, 0.002883853, 0.003934004, -0.006255344, 0.1395648, -0.2357652, -9.844726, 0, 0, 34.875, 1, 1
IMU, 83694001, -0.01038455, -0.0008204743, 0.00322612, 0.5566183, -0.9616331, -9.98473, 0, 0, 31.49862, 1, 1
IMU2, 83694001, -0.01234307, 0.0009928322, 0.008195295, 0.5863386, -1.003935, -9.834177, 0, 0, 35, 1, 1
IMU, 83713828, 0.009760967, 0.00428879, 0.001815733, 0.5863772, -0.4303193, -9.832765, 0, 0, 31.58726, 1, 1
IMU2, 83713828, 0.007382653, 0.008226559, 0.001975099, 0.6640549, -0.5264518, -9.653835, 0, 0, 35, 1, 1
CURR, 83731371, 85, 0, 0, 5352, 0, 0
POWR, 83731375, 5.35, 0.02, 1
MAG, 83731439, 253, 128, 382, -107, -11, -57, 0, 0, 0, 1
MAG2, 83731443, 239, 112, 428, -111, -102, -113, 0, 0, 0, 1
BARO, 83735365, 1.235225, 90998.66, 34.21, -0.02843361
CTUN, 83735375, 0, 0, 85, 1.419811, 1.419811, 1.23, 0.00, 0.00, 5, 5
IMU, 83735478, 0.005010993, 0.003893438, -0.007414395, 0.1821129, -0.4360177, -9.876709, 0, 0, 31.58726, 1, 1
IMU2, 83735478, 0.01098491, 0.00454643, -0.009932288, 0.3019135, -0.4099867, -9.740005, 0, 0, 35, 1, 1
ATT, 83736762, 0.00, 2.10, 0.00, 2.28, 342.31, 342.31, 0.08, 0.02
EKF1, 83736778, 2.10, 2.28, 342.31, 0.2023617, -0.0965847, -0.05750703, 0.6755195, 0.07279681, -1.419942, 0.00, 0.00, 0.00
EKF2, 83736784, 54, -8, 2, 0.00, 0.00, 288, 22, 378, 0, 0, 0
EKF3, 83736789, 0.06, 0.00, 0.50, 0.04, -0.02, -0.17, -1, 0, 0, 0.00
EKF4, 83736812, 0.09, 0.00, 0.01, 0.01, 0.00, 0.00, 0.00, 0, 0, 0, 16, 9023
AHR2, 83736821, 2.80, 2.75, 342.03, 955.25, 39.8761119, 32.650009
POS, 83736876, 39.8761127, 32.6500084, 955.43, 1.419942
RATE, 83736881, 26.05095, 26.05095, 3, 23.67446, 23.67446, 0, -45.09291, -45.09291, 1, -4.448891, -4.448891, 85
MOTB, 83736893, 1, 1, 0, 1
RCIN, 83736897, 1514, 1525, 1110, 1525, 970, 1497, 970, 1497, 0, 0, 0, 0, 0, 0
RCOU, 83737037, 1178, 1178, 1178, 1178, 0, 0, 0, 0, 0, 0, 0, 0
NTUN, 83737054, 67.55195, 7.279681, 67.55195, 7.279681, 0, 0, 20.23617, -9.65847, -26.39169, 46.23489
VIBE, 83737058, 0.4111548, 0.672361, 0.4719567, 0, 0, 0
IMU, 83753854, -0.01503412, -0.006001476, 0.005163697, 0.5058866, -0.6498074, -9.90049, 0, 0, 31.58726, 1, 1
IMU2, 83753854, -0.02048634, -0.004684572, 0.008053731, 0.5339423, -0.7822675, -9.741546, 0, 0, 35, 1, 1
IMU, 83773790, 0.00789766, 0.0005138799, -0.001975153, 0.5135924, -0.4825396, -9.884455, 0, 0, 31.6759, 1, 1
IMU2, 83773790, 0.00200435, 6.332133E-05, -0.002193676, 0.5872815, -0.4602489, -9.706527, 0, 0, 35.125, 1, 1
IMU, 83793966, 0.01527415, -0.002522346, -0.005562662, 0.2636823, -0.7223693, -9.93708, 0, 0, 31.58726, 1, 1
IMU2, 83793966, 0.01584399, -0.002129234, -0.001280338, 0.3450142, -0.6902726, -9.839677, 0, 0, 34.875, 1, 1
IMU, 83813870, -0.02129097, -0.003281681, 0.007211805, 0.3994523, -0.2361877, -9.831103, 0, 0, 31.58726, 1, 1
IMU2, 83813870, -0.02535371, 0.0002900121, 0.009777809, 0.5464971, -0.285163, -9.702359, 0, 0, 34.875, 1, 1
CURR, 83831813, 85, 0, 0, 5356, 0, 0
POWR, 83831817, 5.35, 0.02, 1
MAG, 83831846, 252, 128, 383, -107, -11, -57, 0, 0, 0, 1
MAG2, 83831850, 240, 110, 422, -111, -102, -113, 0, 0, 0, 1
DU32, 83831860, 7, 386524
BARO, 83835411, 1.188353, 90999.14, 34.21, 0.2955373
CTUN, 83835420, 0, 0, 85, 1.425257, 1.425257, 1.18, 0.00, 0.00, 6, 6
IMU, 83835494, 0.005984297, -0.001483202, -0.001437764, 0.5156279, -0.7150617, -9.817092, 0, 0, 31.58726, 1, 1
IMU2, 83835494, 0.002850276, 0.003692429, 0.002292883, 0.5619188, -0.7209126, -9.700004, 0, 0, 34.875, 1, 1
ATT, 83836869, 0.00, 2.09, 0.00, 2.28, 342.32, 342.32, 0.08, 0.02
EKF1, 83836886, 2.09, 2.28, 342.32, 0.2033604, -0.11042, -0.05994181, 0.6908906, 0.06397603, -1.425323, 0.00, 0.00, 0.00
EKF2, 83836892, 54, -8, 2, 0.00, 0.00, 288, 22, 378, 0, 0, 0
EKF3, 83836896, 0.06, 0.00, 0.50, 0.04, -0.02, -0.23, 0, 0, 0, 0.00
EKF4, 83836920, 0.09, 0.00, 0.02, 0.00, 0.00, 0.00, 0.00, 0, 0, 0, 16, 9023
AHR2, 83836959, 2.78, 2.69, 342.05, 955.2, 39.8761119, 32.650009
POS, 83836984, 39.8761129, 32.6500083, 955.44, 1.425323
RATE, 83836988, 31.1584, 31.1584, 0, 18.47251, 18.47251, -1, 0.006094748, 0.006094748, 0, -4.384518, -4.384518, 85
MOTB, 83837001, 1, 1, 0, 1
RCIN, 83837005, 1513, 1525, 1110, 1525, 970, 1497, 970, 1498, 0, 0, 0, 0, 0, 0
RCOU, 83837108, 1178, 1178, 1178, 1178, 0, 0, 0, 0, 0, 0, 0, 0
NTUN, 83837125, 69.08906, 6.397604, 69.08906, 6.397604, 0, 0, 20.33604, -11.042, -26.4665, 46.04118
VIBE, 83837129, 0.3514268, 0.8655571, 0.4806753, 0, 0, 0
UBX3, 83851513, 0, 1.993, 4.253, 0.68
GPS, 83851521, 3, 386192600, 1918, 7, 1.18, 39.876112, 32.6500089, 0.11, 952.91, 0.16, 0.00, -0.69, 1
IMU, 83854782, 0.01734731, -0.001084205, -0.004681549, 0.2786931, -0.8062634, -9.956785, 0, 0, 31.6759, 1, 1
IMU2, 83854782, 0.01704282, 0.004332928, -0.002081662, 0.3437632, -0.7958467, -9.783256, 0, 0, 34.875, 1, 1
IMU, 83873804, -0.02140339, -5.959567E-05, 0.003554631, 0.5524383, 0.110601, -9.766445, 0, 0, 31.58726, 1, 1
IMU2, 83873804, -0.02356442, 0.005306127, 0.003094, 0.6395527, -0.03463688, -9.521983, 0, 0, 34.875, 1, 1
IMU, 83893727, 0.003583173, -0.003047645, -0.0009804065, 0.3736571, -0.9762691, -9.886537, 0, 0, 31.58726, 1, 1
IMU2, 83893727, -0.004296357, -0.002733277, 0.001679141, 0.5676112, -0.937454, -9.737129, 0, 0, 35, 1, 1
IMU, 83913818, 0.01834089, 0.005334525, -0.003148665, 0.2218396, -0.7497892, -10.02376, 0, 0, 31.54294, 1, 1
IMU2, 83913818, 0.01588724, 0.009609845, -0.004495843, 0.3046058, -0.7386832, -9.806689, 0, 0, 35.125, 1, 1
CURR, 83931457, 85, 0, 0, 5354, 0, 0
POWR, 83931461, 5.35, 0.02, 1
MAG, 83931490, 254, 128, 382, -107, -11, -57, 0, 0, 0, 1
MAG2, 83931494, 240, 111, 423, -111, -102, -113, 0, 0, 0, 1
BARO, 83935693, 1.262797, 90998.38, 34.22, 0.1481995
CTUN, 83935703, 0, 0, 85, 1.429951, 1.429951, 1.26, 0.00, 0.00, 6, 5
IMU, 83935820, -0.01632718, 0.0008638403, 0.003192568, 0.6598669, 0.116205, -9.777232, 0, 0, 31.54294, 1, 1
IMU2, 83935820, -0.01295911, 0.009092306, 0.002322523, 0.7311375, 0.05777029, -9.60079, 0, 0, 35.125, 1, 1
ATT, 83937568, 0.00, 2.08, 0.00, 2.30, 342.33, 342.33, 0.07, 0.02
EKF1, 83937584, 2.08, 2.30, 342.33, 0.2005167, -0.112879, -0.06130477, 0.7048942, 0.05650725, -1.43018, 0.00, 0.00, 0.00
EKF2, 83937591, 57, -8, 2, 0.00, 0.00, 288, 22, 378, 0, 0, 0
EKF3, 83937595, 0.04, -0.06, 0.63, 0.06, -0.02, -0.16, -2, 0, 0, 0.00
EKF4, 83937618, 0.12, 0.01, 0.01, 0.01, 0.00, 0.00, 0.00, 0, 0, 0, 16, 9023
AHR2, 83937675, 2.78, 2.69, 342.06, 955.28, 39.876112, 32.6500089
POS, 83937700, 39.876113, 32.6500082, 955.45, 1.43018
RATE, 83937705, -107.7093, -107.7093, 2, 28.67339, 28.67339, 0, 15.57668, 15.57668, 0, -13.79528, -13.79528, 85
MOTB, 83937717, 1, 1, 0, 1
RCIN, 83937721, 1514, 1524, 1138, 1525, 970, 1497, 970, 1498, 0, 0, 0, 0, 0, 0
RCOU, 83937823, 1178, 1178, 1178, 1178, 0, 0, 0, 0, 0, 0, 0, 0
NTUN, 83937841, 70.48942, 5.650725, 70.48942, 5.650725, 0, 0, 20.05167, -11.2879, -26.77951, 45.91958
VIBE, 83937844, 0.4639034, 0.8492926, 0.5563587, 0, 0, 0
IMU, 83954314, -0.003713402, -0.0007498931, 0.002603693, 0.344466, -0.9063975, -9.966797, 0, 0, 31.54294, 1, 1
IMU2, 83954314, -0.01147855, -0.0005691642, 0.005311113, 0.4749301, -0.9042268, -9.818163, 0, 0, 35.125, 1, 1
IMU, 83974309, 0.01851971, 0.009796589, -0.006664934, 0.2209751, -0.8660252, -9.956574, 0, 0, 31.54294, 1, 1
IMU2, 83974309, 0.01689425, 0.00912745, -0.00507109, 0.2618274, -0.8272783, -9.863552, 0, 0, 35.125, 1, 1
RAD, 83981804, 66, 67, 79, 46, 32, 3, 23
RAD, 83984293, 66, 67, 79, 46, 32, 3, 23
IMU, 83994313, -0.01034251, 0.0006732963, 0.00312044, 0.6970329, 0.09564628, -9.836037, 0, 0, 31.63158, 1, 1
IMU2, 83994313, -0.00602341, -0.001589639, 0.002771554, 0.7515013, 0.02756223, -9.603173, 0, 0, 35.125, 1, 1
EV, 84011843, 15
IMU, 84014267, -0.008462373, -0.0002463286, 0.00396689, 0.2976089, -0.8274682, -9.982336, 0, 0, 31.63158, 1, 1
IMU2, 84014267, -0.01491277, -7.558441E-05, 0.007789188, 0.4714795, -0.8215891, -9.899299, 0, 0, 35.125, 1, 1
CURR, 84031916, 85, 0, 0, 5333, 0, 0
POWR, 84031920, 5.33, 0.02, 1
MAG, 84032002, 253, 128, 383, -107, -11, -57, 0, 0, 0, 1
MAG2, 84032006, 239, 112, 428, -111, -102, -113, 0, 0, 0, 1
BARO, 84035840, 1.331727, 90997.66, 34.23, -0.0646218
CTUN, 84035850, 131, 0, 85.54763, 1.43881, 1.43881, 1.33, 0.00, 0.00, 6, 6
IMU, 84035926, 0.01733715, 0.005980826, -0.005621677, 0.3114621, -0.9096179, -9.836136, 0, 0, 31.63158, 1, 1
IMU2, 84035926, 0.01679654, 0.0067721, -0.004180448, 0.3003976, -0.8969962, -9.666657, 0, 0, 35, 1, 1
ATT, 84037294, 0.00, 2.10, 0.00, 2.32, 342.34, 342.34, 0.07, 0.02
EKF1, 84037310, 2.10, 2.32, 342.34, 0.1942639, -0.1241274, -0.06528787, 0.7185532, 0.04876782, -1.439119, 0.00, 0.00, 0.00
EKF2, 84037316, 57, -8, 2, 0.00, 0.00, 288, 22, 378, 0, 0, 0
EKF3, 84037321, 0.04, -0.06, 0.63, 0.06, -0.02, -0.10, -1, 0, 0, 0.00
EKF4, 84037428, 0.12, 0.01, 0.00, 0.01, 0.00, 0.00, 0.00, 0, 0, 0, 16, 9023
AHR2, 84037438, 2.83, 2.71, 342.08, 955.35, 39.876112, 32.6500089
POS, 84037463, 39.8761131, 32.6500081, 955.45, 1.439119
RATE, 84037468, 98.09854, 98.09854, 1, 48.45165, 48.45165, -1, -27.24883, -27.24883, 1, -1.967812, -1.967812, 85.54763
MOTB, 84037480, 1, 1, 0, 1
RCIN, 84037484, 1514, 1525, 1140, 1525, 969, 1498, 970, 1497, 0, 0, 0, 0, 0, 0
RCOU, 84037551, 1179, 1179, 1179, 1179, 0, 0, 0, 0, 0, 0, 0, 0
NTUN, 84037569, 71.85532, 4.876781, 71.85532, 4.876781, 0, 0, 19.42639, -12.41273, -27.07447, 46.3773
VIBE, 84037572, 0.4716988, 0.7067804, 0.4585522, 0, 0, 0
UBX3, 84051889, 0, 1.992, 4.249, 0.58
