FMT, 128, 89, FMT, BBnNZ, Type,Length,Name,Format,Columns
FMT, 129, 31, PARM, QNf, TimeUS,Name,Value
FMT, 130, 46, GPS, QBIHBcLLefffB, TimeUS,Status,GMS,GWk,NSats,HDop,Lat,Lng,Alt,Spd,GCrs,VZ,U
FMT, 131, 46, GPS2, QBIHBcLLefffB, TimeUS,Status,GMS,GWk,NSats,HDop,Lat,Lng,Alt,Spd,GCrs,VZ,U
FMT, 196, 24, GPA, QCCCCBI, TimeUS,VDop,HAcc,VAcc,SAcc,VV,SMS
FMT, 197, 24, GPA2, QCCCCBI, TimeUS,VDop,HAcc,VAcc,SAcc,VV,SMS
FMT, 132, 49, IMU, QffffffIIfBB, TimeUS,GyrX,GyrY,GyrZ,AccX,AccY,AccZ,ErrG,ErrA,Temp,GyHlt,AcHlt
FMT, 133, 75, MSG, QZ, TimeUS,Message
FMT, 134, 39, RCIN, QHHHHHHHHHHHHHH, TimeUS,C1,C2,C3,C4,C5,C6,C7,C8,C9,C10,C11,C12,C13,C14
FMT, 135, 39, RCOU, QHHHHHHHHHHHHHH, TimeUS,C1,C2,C3,C4,C5,C6,C7,C8,C9,C10,C11,C12,C13,C14
FMT, 136, 15, RSSI, Qf, TimeUS,RXRSSI
FMT, 138, 33, BARO, QffcfIf, TimeUS,Alt,Press,Temp,CRt,SMS,Offset
FMT, 139, 21, POWR, QffH, TimeUS,Vcc,VServo,Flags
FMT, 146, 45, CMD, QHHHfffffff, TimeUS,CTot,CNum,CId,Prm1,Prm2,Prm3,Prm4,Lat,Lng,Alt
FMT, 147, 20, RAD, QBBBBBHH, TimeUS,RSSI,RemRSSI,TxBuf,Noise,RemNoise,RxErrors,Fixed
FMT, 149, 43, CAM, QIHLLeeeccC, TimeUS,GPSTime,GPSWeek,Lat,Lng,Alt,RelAlt,GPSAlt,Roll,Pitch,Yaw
FMT, 218, 43, TRIG, QIHLLeeeccC, TimeUS,GPSTime,GPSWeek,Lat,Lng,Alt,RelAlt,GPSAlt,Roll,Pitch,Yaw
FMT, 166, 30, ARSP, QffcffB, TimeUS,Airspeed,DiffPress,Temp,RawPress,Offset,U
FMT, 168, 23, CURR, Qfff, TimeUS,Volt,Curr,CurrTot
FMT, 169, 23, CUR2, Qfff, TimeUS,Volt,Curr,CurrTot
FMT, 167, 27, ATT, QccccCCCC, TimeUS,DesRoll,Roll,DesPitch,Pitch,DesYaw,Yaw,ErrRP,ErrYaw
FMT, 170, 34, MAG, QhhhhhhhhhBI, TimeUS,MagX,MagY,MagZ,OfsX,OfsY,OfsZ,MOfsX,MOfsY,MOfsZ,Health,S
FMT, 173, 14, MODE, QMBB, TimeUS,Mode,ModeNum,Rsn
FMT, 198, 15, RFND, QCC, TimeUS,Dist1,Dist2
FMT, 209, 33, DMS, IIIIIBBBBBBBBBB, TimeMS,N,Dp,RT,RS,Er,Fa,Fmn,Fmx,Pa,Pmn,Pmx,Sa,Smn,Smx
FMT, 137, 49, IMU2, QffffffIIfBB, TimeUS,GyrX,GyrY,GyrZ,AccX,AccY,AccZ,ErrG,ErrA,Temp,GyHlt,AcHlt
FMT, 150, 49, IMU3, QffffffIIfBB, TimeUS,GyrX,GyrY,GyrZ,AccX,AccY,AccZ,ErrG,ErrA,Temp,GyHlt,AcHlt
FMT, 140, 29, AHR2, QccCfLL, TimeUS,Roll,Pitch,Yaw,Alt,Lat,Lng
FMT, 184, 27, POS, QLLff, TimeUS,Lat,Lng,Alt,RelAlt
FMT, 141, 29, SIM, QccCfLL, TimeUS,Roll,Pitch,Yaw,Alt,Lat,Lng
FMT, 142, 51, EKF1, QccCfffffffccc, TimeUS,Roll,Pitch,Yaw,VN,VE,VD,dPD,PN,PE,PD,GX,GY,GZ
FMT, 143, 30, EKF2, Qbbbcchhhhhh, TimeUS,Ratio,AZ1bias,AZ2bias,VWN,VWE,MN,ME,MD,MX,MY,MZ
FMT, 144, 31, EKF3, Qcccccchhhc, TimeUS,IVN,IVE,IVD,IPN,IPE,IPD,IMX,IMY,IMZ,IVT
FMT, 145, 34, EKF4, QcccccccbbHBHH, TimeUS,SV,SP,SH,SMX,SMY,SMZ,SVT,OFN,OFE,FS,TS,SS,GPS
FMT, 164, 28, EKF5, QBhhhcccCC, TimeUS,NI,FIX,FIY,AFI,HAGL,offset,RI,rng,Herr
FMT, 200, 51, NKF1, QccCfffffffccc, TimeUS,Roll,Pitch,Yaw,VN,VE,VD,dPD,PN,PE,PD,GX,GY,GZ
FMT, 201, 35, NKF2, QbccccchhhhhhB, TimeUS,AZbias,GSX,GSY,GSZ,VWN,VWE,MN,ME,MD,MX,MY,MZ,MI
FMT, 202, 33, NKF3, Qcccccchhhcc, TimeUS,IVN,IVE,IVD,IPN,IPE,IPD,IMX,IMY,IMZ,IYAW,IVT
FMT, 203, 35, NKF4, QcccccfbbHBHHb, TimeUS,SV,SP,SH,SM,SVT,errRP,OFN,OFE,FS,TS,SS,GPS,PI
FMT, 204, 40, NKF5, QBhhhcccCCfff, TimeUS,NI,FIX,FIY,AFI,HAGL,offset,RI,rng,Herr,eAng,eVel,ePos
FMT, 205, 51, NKF6, QccCfffffffccc, TimeUS,Roll,Pitch,Yaw,VN,VE,VD,dPD,PN,PE,PD,GX,GY,GZ
FMT, 206, 35, NKF7, QbccccchhhhhhB, TimeUS,AZbias,GSX,GSY,GSZ,VWN,VWE,MN,ME,MD,MX,MY,MZ,MI
FMT, 207, 33, NKF8, Qcccccchhhcc, TimeUS,IVN,IVE,IVD,IPN,IPE,IPD,IMX,IMY,IMZ,IYAW,IVT
FMT, 208, 35, NKF9, QcccccfbbHBHHb, TimeUS,SV,SP,SH,SM,SVT,errRP,OFN,OFE,FS,TS,SS,GPS,PI
FMT, 151, 34, TERR, QBLLHffHH, TimeUS,Status,Lat,Lng,Spacing,TerrH,CHeight,Pending,Loaded
FMT, 152, 18, UBX1, QBHBBH, TimeUS,Instance,noisePerMS,jamInd,aPower,agcCnt
FMT, 153, 16, UBX2, QBbBbB, TimeUS,Instance,ofsI,magI,ofsQ,magQ
FMT, 154, 18, UBY1, QBHBBH, TimeUS,Instance,noisePerMS,jamInd,aPower,agcCnt
FMT, 155, 16, UBY2, QBbBbB, TimeUS,Instance,ofsI,magI,ofsQ,magQ
FMT, 174, 42, GRAW, QIHBBddfBbB, TimeUS,WkMS,Week,numSV,sv,cpMes,prMes,doMes,mesQI,cno,lli
FMT, 175, 24, GRXH, QdHbBB, TimeUS,rcvTime,week,leapS,numMeas,recStat
FMT, 176, 41, GRXS, QddfBBBHBBBBB, TimeUS,prMes,cpMes,doMes,gnss,sv,freq,lock,cno,prD,cpD,doD,trk
FMT, 177, 63, SBFE, QIHBBdddfffff, TimeUS,TOW,WN,Mode,Err,Lat,Lng,Height,Undul,Vn,Ve,Vu,COG
FMT, 156, 19, ESC1, Qcccc, TimeUS,RPM,Volt,Curr,Temp
FMT, 157, 19, ESC2, Qcccc, TimeUS,RPM,Volt,Curr,Temp
FMT, 158, 19, ESC3, Qcccc, TimeUS,RPM,Volt,Curr,Temp
FMT, 159, 19, ESC4, Qcccc, TimeUS,RPM,Volt,Curr,Temp
FMT, 160, 19, ESC5, Qcccc, TimeUS,RPM,Volt,Curr,Temp
FMT, 161, 19, ESC6, Qcccc, TimeUS,RPM,Volt,Curr,Temp
FMT, 162, 19, ESC7, Qcccc, TimeUS,RPM,Volt,Curr,Temp
FMT, 163, 19, ESC8, Qcccc, TimeUS,RPM,Volt,Curr,Temp
FMT, 171, 34, MAG2, QhhhhhhhhhBI, TimeUS,MagX,MagY,MagZ,OfsX,OfsY,OfsZ,MOfsX,MOfsY,MOfsZ,Health,S
FMT, 172, 34, MAG3, QhhhhhhhhhBI, TimeUS,MagX,MagY,MagZ,OfsX,OfsY,OfsZ,MOfsX,MOfsY,MOfsZ,Health,S
FMT, 178, 31, ACC1, QQfff, TimeUS,SampleUS,AccX,AccY,AccZ
FMT, 179, 31, ACC2, QQfff, TimeUS,SampleUS,AccX,AccY,AccZ
FMT, 180, 31, ACC3, QQfff, TimeUS,SampleUS,AccX,AccY,AccZ
FMT, 181, 31, GYR1, QQfff, TimeUS,SampleUS,GyrX,GyrY,GyrZ
FMT, 182, 31, GYR2, QQfff, TimeUS,SampleUS,GyrX,GyrY,GyrZ
FMT, 183, 31, GYR3, QQfff, TimeUS,SampleUS,GyrX,GyrY,GyrZ
FMT, 185, 35, PIDR, Qffffff, TimeUS,Des,P,I,D,FF,AFF
FMT, 186, 35, PIDP, Qffffff, TimeUS,Des,P,I,D,FF,AFF
FMT, 187, 35, PIDY, Qffffff, TimeUS,Des,P,I,D,FF,AFF
FMT, 188, 35, PIDA, Qffffff, TimeUS,Des,P,I,D,FF,AFF
FMT, 189, 35, PIDS, Qffffff, TimeUS,Des,P,I,D,FF,AFF
FMT, 165, 33, BAR2, QffcfIf, TimeUS,Alt,Press,Temp,CRt,SMS,Offset
FMT, 199, 33, BAR3, QffcfI, TimeUS,Alt,Press,Temp,CRt,SMS
FMT, 190, 35, VIBE, QfffIII, TimeUS,VibeX,VibeY,VibeZ,Clip0,Clip1,Clip2
FMT, 191, 47, IMT, Qfffffffff, TimeUS,DelT,DelvT,DelaT,DelAX,DelAY,DelAZ,DelVX,DelVY,DelVZ
FMT, 192, 47, IMT2, Qfffffffff, TimeUS,DelT,DelvT,DelaT,DelAX,DelAY,DelAZ,DelVX,DelVY,DelVZ
FMT, 193, 47, IMT3, Qfffffffff, TimeUS,DelT,DelvT,DelaT,DelAX,DelAY,DelAZ,DelVX,DelVY,DelVZ
FMT, 194, 24, ORGN, QBLLe, TimeUS,Type,Lat,Lng,Alt
FMT, 195, 19, RPM, Qff, TimeUS,rpm1,rpm2
FMT, 219, 47, GMB1, Iffffffffff, TimeMS,dt,dax,day,daz,dvx,dvy,dvz,jx,jy,jz
FMT, 220, 44, GMB2, IBfffffffff, TimeMS,es,ex,ey,ez,rx,ry,rz,tx,ty,tz
FMT, 221, 13, GMB3, Ihhh, TimeMS,rl_torque_cmd,el_torque_cmd,az_torque_cmd
FMT, 222, 59, RATE, Qffffffffffff, TimeUS,RDes,R,ROut,PDes,P,POut,YDes,Y,YOut,ADes,A,AOut
FMT, 223, 23, RALY, QBBLLh, TimeUS,Tot,Seq,Lat,Lng,Alt
FMT, 210, 23, SBPH, QIII, TimeUS,CrcError,LastInject,IARhyp
FMT, 215, 80, SBR1, QHHBZ, TimeUS,msg_type,sender_id,msg_len,d1
FMT, 216, 205, SBR2, QHZZZ, TimeUS,msg_type,d2,d3,d4
FMT, 25, 41, ATUN, QBBfffffff, TimeUS,Axis,TuneStep,Targ,Min,Max,RP,RD,SP,ddt
FMT, 26, 19, ATDE, Qff, TimeUS,Angle,Rate
FMT, 31, 22, PTUN, QBfHHH, TimeUS,Param,TunVal,CtrlIn,TunLo,TunHi
FMT, 12, 28, OF, QBffff, TimeUS,Qual,flowX,flowY,bodyX,bodyY
FMT, 5, 51, NTUN, Qffffffffff, TimeUS,DPosX,DPosY,PosX,PosY,DVelX,DVelY,VelX,VelY,DAccX,DAccY
FMT, 4, 51, CTUN, Qffffffeccfhh, TimeUS,ThI,ABst,ThO,ThH,DAlt,Alt,BAlt,DSAlt,SAlt,TAlt,DCRt,CRt
FMT, 6, 28, PM, QHHIhBHI, TimeUS,NLon,NLoop,MaxT,PMT,I2CErr,INSErr,LogDrop
FMT, 30, 27, MOTB, Qffff, TimeUS,LiftMax,BatVolt,BatRes,ThLimit
FMT, 13, 12, EV, QB, TimeUS,Id
FMT, 20, 14, D16, QBh, TimeUS,Id,Value
FMT, 21, 14, DU16, QBH, TimeUS,Id,Value
FMT, 22, 16, D32, QBi, TimeUS,Id,Value
FMT, 23, 16, DU32, QBI, TimeUS,Id,Value
FMT, 24, 16, DFLT, QBf, TimeUS,Id,Value
FMT, 19, 13, ERR, QBB, TimeUS,Subsys,ECode
FMT, 32, 19, HELI, Qff, TimeUS,DRRPM,ERRPM
FMT, 33, 29, PL, QBBffff, TimeUS,Heal,TAcq,pX,pY,vX,vY
FMT, 34, 36, GUID, QBffffff, TimeUS,Type,pX,pY,pZ,vX,vY,vZ
FMT, 35, 32, THRO, QBffffbbbb, TimeUS,Stage,Vel,VelZ,Acc,AccEfZ,Throw,AttOk,HgtOk,PosOk
FMT, 36, 44, PRX, QBffffffff, TimeUS,Health,D0,D45,D90,D135,D180,D225,D270,D315
EV, 271247045, 10
MODE, 271247054, 0, 0, 1
FMT, 254, 31, CTRL, Qfffff, TimeUS,RMSRollP,RMSRollD,RMSPitchP,RMSPitchD,RMSYaw
MSG, 271357078, APM:Copter V3.4.2 (6076bdfc)
MSG, 271357093, PX4: de6b667d NuttX: 8c965992
MSG, 271357138, PX4v2 00300045 31345116 36383835
MSG, 271357222, New mission
MSG, 271357238, Frame: QUAD
MODE, 271357251, Stabilize, 0, 1
CURR, 271358887, 16.4557, 22.31962, 1617.161
POWR, 271358897, 4.795312, 7.333, 3
MAG, 271358938, 186, -262, 460, 16, 48, -13, 0, 0, 0, 1, 271358930
MAG2, 271358938, -156, -10, 522, -429, 451, 241, 0, 0, 0, 1, 271358932
BARO, 271361104, -0.2952742, 102313.6, 31.24, -1.154978, 271361, 0
CTUN, 271361126, 0, 0, 0, 0.4779548, 0, 0.6032149, -0.29, 0.00, 0.00, 0, 0, 7
ATT, 271361229, 0.88, 0.88, 0.47, 0.47, 51.88, 51.88, 0.00, 0.01
NKF1, 271361239, 0.88, 0.47, 51.88, 0.03264904, -0.08031029, -0.07368639, 0, 0, 0, -0.6032149, -0.07, 0.06, -0.01
NKF2, 271361239, 1, 0.00, 0.00, 0.00, 0.00, 0.00, 316, 0, 470, 0, 0, 0, 0
NKF3, 271361239, 0.00, 0.00, 0.00, 0.02, -0.05, 0.89, 0, 0, 0, 0.21, 0.00
NKF4, 271361239, 0.00, 0.00, 0.05, 0.00, 0.00, 0.0001065332, 0, 0, 0, 19, 485, 256, 0
NKF5, 271361239, 0, 0, 0, 0, 0.13, 0.10, 0.00, 0.09, 0.15, 0.0004492943, 0.006857815, 0.5700769
NKF6, 271361239, 2.50, 0.56, 53.81, -0.06457013, -0.009673135, 0.2387879, 0, 0, 0, 0.04100981, 0.05, 0.10, 0.00
NKF7, 271361239, -51, 0.00, 0.00, 0.00, 0.00, 0.00, 322, 0, 466, 0, 0, 0, 0
NKF8, 271361239, 0.00, 0.00, 0.00, -0.05, 0.00, 0.92, 0, 0, 0, 0.82, 0.00
NKF9, 271361239, 0.00, 0.00, 0.06, 0.00, 0.00, 9.577174E-05, 0, 0, 0, 19, 485, 256, 0
AHR2, 271361379, 1.12, 0.29, 53.11, -0.29, 0, 0
RATE, 271361438, -0.08817144, -0.08817144, 3.659329E-05, 0.05746933, 0.05746933, -6.253569E-05, -0.00848502, -0.00848502, -2.75285E-06, -2783.919, 1.996422, 0
MOTB, 271361458, 1, 1, 0, 1
RCIN, 271361468, 1494, 1494, 982, 2006, 1136, 1494, 982, 2006, 982, 1494, 1494, 1055, 1494, 1494
RCOU, 271361609, 982, 982, 982, 982, 0, 0, 0, 0, 1000, 0, 0, 0, 0, 0
VIBE, 271361629, 0.03166398, 0.03081577, 0.03843985, 0, 0, 0
CTRL, 271361648, 1.906636E-05, 2.774517E-05, 1.725315E-05, 2.544692E-05, 5.329354E-06
GPS, 271378783, 1, 0, 0, 0, 99.99, 0, 0, -17.00, 0, 0, 0, 1
GPA, 271378783, 99.99, 393.28, 61.76, 142.70, 1, 271378
IMU, 271381243, -0.003018418, 0.002006788, -0.0005332694, 0.0870822, 0.3116101, -9.81209, 0, 0, 31.18837, 1, 1
IMU2, 271381243, 0.002680212, -0.0003917367, 0.00458381, 0.1482218, 0.08066059, -10.26904, 0, 0, 32.75, 1, 1
IMU, 271421205, -0.002529433, 0.001640467, -0.0006836455, 0.1027868, 0.2812023, -9.809882, 0, 0, 31.09972, 1, 1
IMU2, 271421205, -0.001038193, 0.004142017, -0.0007952733, 0.191201, 0.1566284, -10.29699, 0, 0, 32.75, 1, 1
CURR, 271458603, 16.43971, 21.50533, 1617.757
POWR, 271458614, 4.76792, 7.335001, 3
MAG, 271458650, 184, -266, 462, 16, 48, -13, 0, 0, 0, 1, 271458642
MAG2, 271458650, -158, -14, 525, -429, 451, 241, 0, 0, 0, 1, 271458644
BARO, 271461100, -0.1585732, 102312, 31.24, -2.768567, 271461, 0
CTUN, 271461122, 0, 0, 0, 0.4779548, 0, 0.40303, -0.15, 0.00, 0.00, 0, 0, 7
ATT, 271461230, 0.87, 0.87, 0.48, 0.48, 51.88, 51.88, 0.00, 0.01
NKF1, 271461244, 0.87, 0.48, 51.88, 0.03389368, -0.08170403, -0.07664133, 0, 0, 0, -0.4030301, -0.07, 0.06, -0.01
NKF2, 271461244, 1, 0.00, 0.00, 0.00, 0.00, 0.00, 316, 0, 470, 0, 0, 0, 0
NKF3, 271461244, 0.00, 0.00, 0.00, 0.02, -0.05, 0.89, 0, 0, 0, 0.21, 0.00
NKF4, 271461244, 0.00, 0.00, 0.05, 0.00, 0.00, 7.137191E-05, 0, 0, 0, 19, 485, 256, 0
NKF5, 271461244, 0, 0, 0, 0, 0.14, 0.09, 0.04, 0.09, 0.15, 0.0003330587, 0.007810805, 0.3538257
NKF6, 271461244, 2.50, 0.55, 53.82, -0.06393283, -0.006526117, 0.2386395, 0, 0, 0, 0.04889925, 0.05, 0.10, 0.00
NKF7, 271461244, -51, 0.00, 0.00, 0.00, 0.00, 0.00, 322, 0, 466, 0, 0, 0, 0
NKF8, 271461244, 0.00, 0.00, 0.00, -0.05, 0.00, 0.92, 0, 0, 0, 0.82, 0.00
NKF9, 271461244, 0.00, 0.00, 0.06, 0.00, 0.00, 6.44972E-05, 0, 0, 0, 19, 485, 256, 0
AHR2, 271461483, 1.11, 0.28, 53.11, -0.15, 0, 0
RATE, 271461500, -0.06510472, -0.06510472, 7.360233E-06, 0.04179624, 0.04179624, -9.365368E-06, -0.02644082, -0.02644082, 7.49025E-06, -2783.919, 1.391697, 0
MOTB, 271461520, 1, 1, 0, 1
RCIN, 271461576, 1494, 1494, 982, 2006, 1136, 1494, 982, 2006, 982, 1494, 1494, 1055, 1494, 1494
RCOU, 271461776, 982, 982, 982, 982, 0, 0, 0, 0, 1000, 0, 0, 0, 0, 0
VIBE, 271461796, 0.02990983, 0.0297334, 0.037661, 0, 0, 0
CTRL, 271461815, 1.83985E-05, 2.702677E-05, 1.681606E-05, 2.491579E-05, 5.138244E-06
IMU, 271461869, -0.002507084, 0.00192049, -0.0007172013, 0.110002, 0.289072, -9.803684, 0, 0, 31.14404, 1, 1
IMU2, 271461869, 0.002998269, 0.001151424, 0.003888123, 0.09587026, -0.01428225, -10.26324, 0, 0, 32.75, 1, 1
IMU, 271501012, -0.002323331, 0.001673086, -0.001123081, 0.09167843, 0.2835306, -9.80551, 0, 0, 31.14404, 1, 1
IMU2, 271501012, 0.001636431, 0.002060477, 0.00746441, 0.1290694, 0.07584329, -10.3113, 0, 0, 32.625, 1, 1
IMU, 271541038, -0.001884819, 0.001987713, -0.0003543032, 0.1091136, 0.2895727, -9.807458, 0, 0, 31.0554, 1, 1
IMU2, 271541038, -0.0005938183, 0.000846051, -0.003883655, -0.009599313, 0.1437772, -10.26177, 0, 0, 32.75, 1, 1
CURR, 271559156, 16.4502, 21.91319, 1618.369
POWR, 271559166, 4.75664, 7.33, 3
MAG, 271559199, 190, -264, 460, 16, 48, -13, 0, 0, 0, 1, 271559191
MAG2, 271559199, -157, -13, 525, -429, 451, 241, 0, 0, 0, 1, 271559193
BARO, 271560869, -0.09842473, 102311.3, 31.24, -2.737214, 271560, 0
CTUN, 271560891, 0, 0, 0, 0.4779548, 0, 0.2655851, -0.09, 0.00, 0.00, 0, 0, 7
ATT, 271561090, 0.87, 0.87, 0.48, 0.48, 51.88, 51.88, 0.00, 0.01
NKF1, 271561100, 0.87, 0.48, 51.88, 0.03549949, -0.08528141, -0.07826179, 0, 0, 0, -0.2655851, -0.07, 0.06, -0.01
NKF2, 271561100, 1, 0.00, 0.00, 0.00, 0.00, 0.00, 316, 0, 470, 0, 0, 0, 0
NKF3, 271561100, 0.00, 0.00, 0.00, 0.02, -0.07, -0.33, 0, 0, 0, -0.36, 0.00
NKF4, 271561100, 0.00, 0.00, 0.02, 0.00, 0.00, 4.618492E-05, 0, 0, 0, 19, 485, 256, 0
NKF5, 271561100, 0, 0, 0, 0, 0.12, 0.09, 0.04, 0.09, 0.15, 0.0002222575, 0.007744933, 0.2291757
NKF6, 271561100, 2.50, 0.55, 53.82, -0.06878918, -0.00902597, 0.2373964, 0, 0, 0, 0.0654551, 0.05, 0.10, 0.00
NKF7, 271561100, -52, 0.00, 0.00, 0.00, 0.00, 0.00, 322, 0, 466, 0, 0, 0, 0
NKF8, 271561100, 0.00, 0.00, 0.00, -0.06, 0.00, -0.29, 0, 0, 0, 0.24, 0.00
NKF9, 271561100, 0.00, 0.00, 0.01, 0.00, 0.00, 4.18532E-05, 0, 0, 0, 19, 485, 256, 0
AHR2, 271561281, 1.11, 0.28, 53.11, -0.09, 0, 0
RATE, 271561298, -0.06782704, -0.06782704, 9.677975E-06, 0.05028623, 0.05028623, -1.99538E-06, 0.05363736, 0.05363736, -1.330782E-05, -2783.919, 2.616405, 0
MOTB, 271561318, 1, 1, 0, 1
RCIN, 271561329, 1494, 1494, 982, 2006, 1136, 1494, 982, 2006, 982, 1494, 1494, 1055, 1494, 1494
RCOU, 271561398, 982, 982, 982, 982, 0, 0, 0, 0, 1000, 0, 0, 0, 0, 0
VIBE, 271561418, 0.02933908, 0.02893596, 0.03354917, 0, 0, 0
CTRL, 271561437, 1.992051E-05, 2.91745E-05, 1.509108E-05, 2.238235E-05, 5.912439E-06
GPS, 271578986, 1, 0, 0, 0, 99.99, 0, 0, -17.00, 0, 0, 0, 1
GPA, 271578986, 99.99, 393.28, 62.08, 142.77, 1, 271578
IMU, 271580855, -0.002480182, 0.001502222, -0.001132807, 0.0877914, 0.295101, -9.81329, 0, 0, 31.23269, 1, 1
IMU2, 271580855, 0.003123518, 0.003719014, 0.002668263, 0.1274361, 0.1660845, -10.23331, 0, 0, 32.875, 1, 1
IMU, 271620996, -0.002528961, 0.001945242, -0.0003898171, 0.08265186, 0.3053266, -9.809538, 0, 0, 31.14404, 1, 1
IMU2, 271620996, 0.0009923, -0.001046535, -0.0007267516, -0.02015956, 0.006060078, -10.29061, 0, 0, 32.75, 1, 1
CURR, 271658818, 16.46141, 21.63747, 1618.968
POWR, 271658828, 4.753418, 7.33, 3
MAG, 271658868, 184, -269, 462, 16, 48, -13, 0, 0, 0, 1, 271658860
MAG2, 271658868, -157, -14, 525, -429, 451, 241, 0, 0, 0, 1, 271658863
BARO, 271660998, -0.3936989, 102314.8, 31.24, -1.214809, 271660, 0
CTUN, 271661051, 0, 0, 0, 0.4779548, 0, 0.1707777, -0.39, 0.00, 0.00, 0, 0, 7
ATT, 271661195, 0.86, 0.86, 0.48, 0.48, 51.88, 51.88, 0.00, 0.01
NKF1, 271661205, 0.86, 0.48, 51.88, 0.03601657, -0.08927258, -0.07867433, 0, 0, 0, -0.1707777, -0.07, 0.06, -0.01
NKF2, 271661205, 1, 0.00, 0.00, 0.00, 0.00, 0.00, 316, 0, 470, 0, 0, 0, 0
NKF3, 271661205, 0.00, 0.00, 0.00, 0.03, -0.08, -0.19, 0, 0, 0, -0.90, 0.00
NKF4, 271661205, 0.00, 0.00, 0.01, 0.01, 0.00, 3.010261E-05, 0, 0, 0, 19, 485, 256, 0
NKF5, 271661205, 0, 0, 0, 0, 0.12, 0.09, 0.03, 0.09, 0.15, 0.0001448929, 0.008992851, 0.1301294
NKF6, 271661205, 2.50, 0.55, 53.82, -0.07165011, -0.01186926, 0.2435108, 0, 0, 0, 0.08879738, 0.05, 0.10, 0.00
NKF7, 271661205, -52, 0.00, 0.00, 0.00, 0.00, 0.00, 322, 0, 466, 0, 0, 0, 0
NKF8, 271661205, 0.00, 0.00, 0.00, -0.07, 0.00, -0.07, 0, 0, 0, -0.31, 0.00
NKF9, 271661205, 0.00, 0.00, 0.00, 0.00, 0.00, 2.730678E-05, 0, 0, 0, 19, 485, 256, 0
AHR2, 271661344, 1.11, 0.28, 53.11, -0.39, 0, 0
RATE, 271661361, -0.07828996, -0.07828996, -0.00019198, 0.00697533, 0.00697533, 8.891088E-05, -0.03449225, -0.03449225, 3.215007E-06, -2783.919, 0.3868103, 0
MOTB, 271661419, 1, 1, 0, 1
RCIN, 271661429, 1494, 1494, 982, 1712, 1136, 1494, 982, 2006, 982, 1494, 1494, 1055, 1494, 1494
RCOU, 271661588, 982, 982, 982, 982, 0, 0, 0, 0, 1000, 0, 0, 0, 0, 0
VIBE, 271661608, 0.0299973, 0.02749599, 0.04380302, 0, 0, 0
CTRL, 271661627, 2.036493E-05, 3.010549E-05, 1.454536E-05, 2.15637E-05, 5.767264E-06
IMU, 271661655, -0.002748297, 0.001322387, -0.0008601035, 0.1039219, 0.2969032, -9.793392, 0, 0, 31.14404, 1, 1
IMU2, 271661655, 0.000928235, 0.0008959716, -0.0009942425, 0.1546301, 0.1123507, -10.17218, 0, 0, 32.75, 1, 1
IMU, 271700883, -0.00155927, 0.001676099, -0.00129768, 0.1023887, 0.2899923, -9.797382, 0, 0, 31.14404, 1, 1
IMU2, 271700883, 0.001860702, 0.002727747, -0.001586176, 0.04377277, 0.07251973, -10.21822, 0, 0, 32.625, 1, 1
IMU, 271741284, -0.002574578, 0.002261686, -0.0002731998, 0.1014037, 0.2966617, -9.813526, 0, 0, 31.0554, 1, 1
IMU2, 271741284, 0.004619257, 0.002457556, 0.002746077, 0.1543357, 0.1413585, -10.33327, 0, 0, 32.875, 1, 1
CURR, 271758927, 16.46774, 21.71321, 1619.572
POWR, 271758937, 4.801758, 7.33, 3
MAG, 271758969, 192, -266, 465, 16, 48, -13, 0, 0, 0, 1, 271758961
MAG2, 271758969, -157, -14, 525, -429, 451, 241, 0, 0, 0, 1, 271758963
BARO, 271760836, -0.2296577, 102312.9, 31.24, -0.116111, 271760, 0
CTUN, 271760858, 0, 0, 0, 0.4779548, 0, 0.1073484, -0.22, 0.00, 0.00, 0, 0, 7
ATT, 271761037, 0.86, 0.86, 0.49, 0.49, 51.88, 51.88, 0.00, 0.01
NKF1, 271761090, 0.86, 0.49, 51.88, 0.03789124, -0.09365267, -0.07930579, 0, 0, 0, -0.1073484, -0.07, 0.06, -0.01
NKF2, 271761090, 1, 0.00, 0.00, 0.00, 0.00, 0.00, 316, 0, 470, 0, 0, 0, 0
NKF3, 271761090, 0.00, 0.00, 0.00, 0.03, -0.09, -0.13, 0, 0, 0, 0.16, 0.00
NKF4, 271761090, 0.00, 0.00, 0.00, 0.00, 0.00, 2.035805E-05, 0, 0, 0, 19, 485, 256, 0
NKF5, 271761090, 0, 0, 0, 0, 0.12, 0.09, 0.03, 0.09, 0.15, 8.38078E-05, 0.009758321, 0.06255544
NKF6, 271761090, 2.50, 0.55, 53.82, -0.07821129, -0.01446331, 0.2463109, 0, 0, 0, 0.1144505, 0.05, 0.10, 0.00
NKF7, 271761090, -52, 0.00, 0.00, 0.00, 0.00, 0.00, 322, 0, 466, 0, 0, 0, 0
NKF8, 271761090, 0.00, 0.00, 0.00, -0.07, 0.00, 0.01, 0, 0, 0, 0.74, 0.00
NKF9, 271761090, 0.00, 0.00, 0.00, 0.00, 0.00, 1.858544E-05, 0, 0, 0, 19, 485, 256, 0
AHR2, 271761315, 1.11, 0.28, 53.11, -0.22, 0, 0
RATE, 271761374, -0.05023703, -0.05023703, -5.936866E-05, 0.06274156, 0.06274156, 3.442375E-05, -0.01185597, -0.01185597, 7.857074E-07, -2783.919, 2.130604, 0
MOTB, 271761398, 1, 1, 0, 1
RCIN, 271761409, 1494, 1494, 982, 1498, 1136, 1494, 982, 2006, 982, 1494, 1494, 1055, 1494, 1494
RCOU, 271761482, 982, 982, 982, 982, 0, 0, 0, 0, 1000, 0, 0, 0, 0, 0
VIBE, 271761502, 0.03423836, 0.0316386, 0.04109255, 0, 0, 0
CTRL, 271761521, 1.959787E-05, 2.858368E-05, 1.540281E-05, 2.272396E-05, 6.385457E-06
GPS, 271778833, 1, 0, 0, 0, 99.99, 0, 0, -17.00, 0, 0, 0, 1
GPA, 271778833, 99.99, 393.28, 62.08, 142.83, 1, 271778
IMU, 271780810, -0.001987895, 0.00161035, -0.001166165, 0.1024969, 0.2805419, -9.790315, 0, 0, 31.0554, 1, 1
IMU2, 271780810, 0.004351852, 0.001091253, 0.001991732, 0.1260592, 0.0766236, -10.31667, 0, 0, 32.75, 1, 1
IMU, 271820950, -0.002551835, 0.001732686, -9.687939E-05, 0.1026802, 0.2956552, -9.797635, 0, 0, 31.23269, 1, 1
IMU2, 271820950, -0.002457273, -0.0009152516, -0.004572117, 0.1511636, 0.1218334, -10.34597, 0, 0, 32.75, 1, 1
CURR, 271858895, 16.45996, 21.81602, 1620.178
POWR, 271858905, 4.746973, 7.33, 3
MAG, 271858937, 187, -271, 460, 16, 48, -13, 0, 0, 0, 1, 271858929
MAG2, 271858937, -158, -15, 526, -429, 451, 241, 0, 0, 0, 1, 271858931
DU32, 271858973, 7, 16836056
BARO, 271860897, 0, 102310.2, 31.25, -0.189839, 271860, 0
CTUN, 271860958, 0, 0, 0, 0.4779548, 0, 0.06505685, 0.00, 0.00, 0.00, 0, 0, 7
ATT, 271861259, 0.85, 0.85, 0.49, 0.49, 51.88, 51.88, 0.00, 0.01
NKF1, 271861270, 0.85, 0.49, 51.88, 0.040284, -0.09848014, -0.07916527, 0, 0, 0, -0.06505685, -0.07, 0.06, -0.01
NKF2, 271861270, 1, 0.00, 0.00, 0.00, 0.00, 0.00, 316, 0, 470, 0, 0, 0, 0
NKF3, 271861270, 0.00, 0.00, 0.00, 0.03, -0.09, -0.43, 0, 0, 0, -1.21, 0.00
NKF4, 271861270, 0.00, 0.00, 0.02, 0.01, 0.00, 1.388792E-05, 0, 0, 0, 19, 485, 256, 0
NKF5, 271861270, 0, 0, 0, 0, 0.12, 0.09, 0.03, 0.09, 0.15, 9.633264E-05, 0.01025635, 0.03037356
NKF6, 271861270, 2.50, 0.55, 53.83, -0.08056469, -0.01156087, 0.2490614, 0, 0, 0, 0.1413448, 0.05, 0.10, 0.00
NKF7, 271861270, -52, 0.00, 0.00, 0.00, 0.00, 0.00, 322, 0, 466, 0, 0, 0, 0
NKF8, 271861270, 0.00, 0.00, 0.00, -0.08, 0.00, -0.25, 0, 0, 0, -0.60, 0.00
NKF9, 271861270, 0.00, 0.00, 0.01, 0.00, 0.00, 1.285352E-05, 0, 0, 0, 19, 485, 256, 0
AHR2, 271861490, 1.11, 0.28, 53.10, 0, 0, 0
RATE, 271861507, -0.06695592, -0.06695592, 1.153903E-05, 0.048942, 0.048942, -7.634646E-05, -0.04181434, -0.04181434, 3.699777E-06, -2783.919, 2.291775, 0
MOTB, 271861527, 1, 1, 0, 1
RCIN, 271861538, 1494, 1494, 982, 1498, 1136, 1494, 982, 2006, 982, 1494, 1494, 1055, 1494, 1494
RCOU, 271861607, 982, 982, 982, 982, 0, 0, 0, 0, 1000, 0, 0, 0, 0, 0
VIBE, 271861656, 0.03093401, 0.03264289, 0.03953571, 0, 0, 0
CTRL, 271861675, 1.969392E-05, 2.904937E-05, 1.74397E-05, 2.548057E-05, 6.093869E-06
IMU, 271861704, -0.002558114, 0.002061479, -0.0009895554, 0.09534258, 0.2907911, -9.812753, 0, 0, 31.0554, 1, 1
IMU2, 271861704, -0.002151973, -0.0001755844, -0.003322795, 0.1572089, 0.1107938, -10.38651, 0, 0, 32.75, 1, 1
IMU, 271901017, -0.002021406, 0.001359388, -0.0004070603, 0.09504493, 0.279033, -9.7994, 0, 0, 31.09972, 1, 1
IMU2, 271901017, 0.003617912, 0.004729652, 0.003288655, 0.06135571, 0.1308573, -10.2171, 0, 0, 32.75, 1, 1
IMU, 271940964, -0.001732275, 0.001212542, -0.0003378168, 0.1098816, 0.2944851, -9.802773, 0, 0, 31.09972, 1, 1
IMU2, 271940964, 0.00485306, 0.003450987, 0.004663933, 0.09888263, 0.0769031, -10.33035, 0, 0, 32.875, 1, 1
CURR, 271958920, 16.47588, 21.91625, 1620.787
POWR, 271958930, 4.74375, 7.335001, 3
MAG, 271958999, 189, -261, 461, 16, 48, -13, 0, 0, 0, 1, 271958991
MAG2, 271958999, -157, -14, 525, -429, 451, 241, 0, 0, 0, 1, 271958994
BARO, 271960825, -0.2077855, 102312.6, 31.25, 0.02104755, 271960, 0
CTUN, 271960847, 0, 0, 0, 0.4779548, 0, 0.03477943, -0.20, 0.00, 0.00, 0, 0, 7
ATT, 271961336, 0.85, 0.85, 0.49, 0.49, 51.88, 51.88, 0.00, 0.01
NKF1, 271961346, 0.85, 0.49, 51.88, 0.04222071, -0.1035974, -0.07826918, 0, 0, 0, -0.03477943, -0.07, 0.06, -0.01
NKF2, 271961346, 1, 0.00, 0.00, 0.00, 0.00, 0.00, 316, 0, 470, 0, 0, 0, 0
NKF3, 271961346, 0.00, 0.00, 0.00, 0.04, -0.10, -0.26, 0, 0, 0, 0.32, 0.00
NKF4, 271961346, 0.00, 0.00, 0.01, 0.00, 0.00, 9.590817E-06, 0, 0, 0, 19, 485, 256, 0
NKF5, 271961346, 0, 0, 0, 0, 0.11, 0.09, 0.02, 0.09, 0.15, 7.456522E-05, 0.01041182, 0.0194822
NKF6, 271961346, 2.51, 0.56, 53.84, -0.085638, -0.01439383, 0.2540319, 0, 0, 0, 0.171639, 0.05, 0.10, 0.00
NKF7, 271961346, -52, 0.00, 0.00, 0.00, 0.00, 0.00, 322, 0, 466, 0, 0, 0, 0
NKF8, 271961346, 0.00, 0.00, 0.00, -0.09, 0.00, -0.06, 0, 0, 0, 0.86, 0.00
NKF9, 271961346, 0.00, 0.00, 0.00, 0.01, 0.00, 8.938409E-06, 0, 0, 0, 19, 485, 256, 0
AHR2, 271961557, 1.11, 0.28, 53.11, -0.2, 0, 0
RATE, 271961695, -0.08561213, -0.08561213, 0.0001560604, 0.04331806, 0.04331806, -6.463467E-05, -0.0005452061, -0.0005452061, -1.970474E-06, -2783.919, -0.1644135, 0
MOTB, 271961770, 1, 1, 0, 1
RCIN, 271961780, 1494, 1494, 982, 1498, 1136, 1494, 982, 2006, 982, 1494, 1494, 1055, 1494, 1494
RCOU, 271961849, 982, 982, 982, 982, 0, 0, 0, 0, 1000, 0, 0, 0, 0, 0
VIBE, 271961870, 0.02938493, 0.03016254, 0.03913296, 0, 0, 0
CTRL, 271961888, 2.005137E-05, 2.914275E-05, 1.76485E-05, 2.593276E-05, 5.883584E-06
GPS, 271978976, 1, 0, 0, 0, 99.99, 0, 0, -17.00, 0, 0, 0, 1
GPA, 271978976, 99.99, 393.28, 62.08, 142.87, 1, 271978
IMU, 271980955, -0.002690663, 0.001381774, -0.0002601898, 0.1024998, 0.2906651, -9.79667, 0, 0, 31.18837, 1, 1
IMU2, 271980955, 0.004217226, -0.0007527834, 0.004627631, 0.1115195, 0.08017979, -10.37895, 0, 0, 32.75, 1, 1
RAD, 271983744, 138, 139, 84, 70, 74, 0, 0
RAD, 271988574, 138, 139, 84, 70, 74, 0, 0
IMU, 272021055, -0.002158733, 0.001536652, 6.246429E-05, 0.09891535, 0.295098, -9.820896, 0, 0, 31.09972, 1, 1
IMU2, 272021055, 0.002769816, 0.006342615, -0.001035992, 0.0640716, 0.08992979, -10.30189, 0, 0, 32.875, 1, 1
CURR, 272058784, 16.4624, 22.01327, 1621.398
POWR, 272058794, 4.759863, 7.333, 3
MAG, 272058872, 185, -266, 467, 16, 48, -13, 0, 0, 0, 1, 272058864
MAG2, 272058872, -158, -15, 526, -429, 451, 241, 0, 0, 0, 1, 272058866
BARO, 272061058, -0.2351257, 102312.9, 31.24, 0.4545309, 272061, 0
CTUN, 272061080, 0, 0, 0, 0.4779548, 0, 0.01493281, -0.23, 0.00, 0.00, 0, 0, 7
ATT, 272061180, 0.84, 0.84, 0.49, 0.49, 51.88, 51.88, 0.00, 0.01
NKF1, 272061190, 0.84, 0.49, 51.88, 0.04486184, -0.1086661, -0.07833332, 0, 0, 0, -0.01493281, -0.07, 0.06, -0.01
NKF2, 272061190, 1, 0.00, 0.00, 0.00, 0.00, 0.00, 316, 0, 470, 0, 0, 0, 0
NKF3, 272061190, 0.00, 0.00, 0.00, 0.04, -0.11, -0.03, 0, 0, 0, -1.01, 0.00
NKF4, 272061190, 0.00, 0.00, 0.00, 0.01, 0.00, 6.824881E-06, 0, 0, 0, 19, 485, 256, 0
NKF5, 272061190, 0, 0, 0, 0, 0.12, 0.09, 0.02, 0.09, 0.15, 0.0001138651, 0.01024438, 0.03768817
NKF6, 272061190, 2.52, 0.56, 53.85, -0.09121912, -0.01815809, 0.2552732, 0, 0, 0, 0.2018633, 0.05, 0.10, 0.00
NKF7, 272061190, -52, 0.00, 0.00, 0.00, 0.00, 0.00, 322, 0, 466, 0, 0, 0, 0
NKF8, 272061190, 0.00, 0.00, 0.00, -0.10, 0.00, 0.19, 0, 0, 0, -0.39, 0.00
NKF9, 272061190, 0.00, 0.00, 0.01, 0.00, 0.00, 6.311136E-06, 0, 0, 0, 19, 485, 256, 0
AHR2, 272061428, 1.11, 0.28, 53.11, -0.23, 0, 0
RATE, 272061445, -0.03418207, -0.03418207, 1.706733E-05, 0.0647618, 0.0647618, -9.438368E-05, -0.0198463, -0.0198463, 2.889919E-06, -2783.919, 0.9153366, 0
MOTB, 272061495, 1, 1, 0, 1
RCIN, 272061506, 1494, 1494, 982, 1498, 1136, 1494, 982, 2006, 982, 1494, 1494, 1055, 1494, 1494
RCOU, 272061575, 982, 982, 982, 982, 0, 0, 0, 0, 1000, 0, 0, 0, 0, 0
VIBE, 272061595, 0.03097959, 0.03106423, 0.03921372, 0, 0, 0
CTRL, 272061614, 1.886209E-05, 2.790991E-05, 1.81123E-05, 2.666081E-05, 5.463558E-06
IMU, 272061643, -0.001991137, 0.00234196, -0.0006072348, 0.1095077, 0.2860044, -9.798944, 0, 0, 31.09972, 1, 1
IMU2, 272061643, -0.0007571744, -0.002514306, -0.000755072, 0.04866421, 0.1637354, -10.32884, 0, 0, 32.75, 1, 1
IMU, 272101116, -0.002346473, 0.001644181, -0.0005421361, 0.09817923, 0.3029049, -9.798105, 0, 0, 31.18837, 1, 1
IMU2, 272101116, 0.001108375, 0.006732466, 0.005866365, 0.1243219, 0.1112498, -10.33072, 0, 0, 32.75, 1, 1
IMU, 272140982, -0.002131305, 0.001809496, -0.0005930708, 0.09741406, 0.2864163, -9.806703, 0, 0, 31.18837, 1, 1
IMU2, 272140982, 0.003872013, 0.004992891, 0.001802259, 0.1266677, 0.08381508, -10.25496, 0, 0, 32.75, 1, 1
CURR, 272159272, 16.45598, 21.66003, 1622.002
POWR, 272159282, 4.75664, 7.328001, 3
MAG, 272159368, 187, -267, 468, 16, 48, -13, 0, 0, 0, 1, 272159306
MAG2, 272159368, -157, -14, 525, -429, 451, 241, 0, 0, 0, 1, 272159308
BARO, 272160794, -0.273402, 102313.3, 31.25, 0.177217, 272160, 0
CTUN, 272160816, 0, 0, 0, 0.4779548, 0, 0.003845974, -0.27, 0.00, 0.00, 0, 0, 7
ATT, 272161119, 0.84, 0.84, 0.50, 0.50, 51.88, 51.88, 0.00, 0.00
NKF1, 272161129, 0.84, 0.50, 51.88, 0.0469651, -0.1143415, -0.07797542, 0, 0, 0, -0.003845974, -0.07, 0.06, -0.01
NKF2, 272161129, 1, 0.00, 0.00, 0.00, 0.00, 0.00, 316, 0, 470, 0, 0, 0, 0
NKF3, 272161129, 0.00, 0.00, 0.00, 0.05, -0.12, -0.24, 0, 0, 0, 0.47, 0.00
NKF4, 272161129, 0.00, 0.00, 0.01, 0.00, 0.00, 5.031979E-06, 0, 0, 0, 19, 485, 256, 0
NKF5, 272161129, 0, 0, 0, 0, 0.12, 0.09, 0.02, 0.09, 0.15, 8.57737E-05, 0.01009145, 0.0467802
NKF6, 272161129, 2.52, 0.57, 53.85, -0.09537754, -0.01754265, 0.259599, 0, 0, 0, 0.2291741, 0.05, 0.10, 0.00
NKF7, 272161129, -52, 0.00, 0.00, 0.00, 0.00, 0.00, 322, 0, 466, 0, 0, 0, 0
NKF8, 272161129, 0.00, 0.00, 0.00, -0.11, -0.01, 0.00, 0, 0, 0, 0.99, 0.00
NKF9, 272161129, 0.00, 0.00, 0.00, 0.01, 0.00, 4.601194E-06, 0, 0, 0, 19, 485, 256, 0
AHR2, 272161314, 1.11, 0.29, 53.11, -0.27, 0, 0
RATE, 272161331, -0.07445863, -0.07445863, 1.180823E-05, 0.08204184, 0.08204184, 9.56802E-05, 0.008239462, 0.008239462, -4.491209E-06, -2783.919, 1.229858, 0
MOTB, 272161351, 1, 1, 0, 1
RCIN, 272161362, 1494, 1494, 982, 1498, 1136, 1494, 982, 2006, 982, 1494, 1494, 1055, 1494, 1494
RCOU, 272161431, 982, 982, 982, 982, 0, 0, 0, 0, 1000, 0, 0, 0, 0, 0
VIBE, 272161451, 0.0329539, 0.03100408, 0.03876112, 0, 0, 0
CTRL, 272161470, 1.87294E-05, 2.742032E-05, 1.850399E-05, 2.733756E-05, 5.056104E-06
GPS, 272178826, 1, 0, 0, 0, 99.99, 0, 0, -17.00, 0, 0, 0, 1
GPA, 272178826, 99.99, 393.28, 62.08, 142.94, 1, 272178
IMU, 272181146, -0.003312991, 0.001571106, -0.001010383, 0.1045838, 0.2850747, -9.790946, 0, 0, 31.09972, 1, 1
IMU2, 272181146, 0.003318079, 0.0003680216, 0.00439602, 0.07384825, 0.08502404, -10.25844, 0, 0, 32.625, 1, 1
IMU, 272220889, -0.002033744, 0.001350113, -0.000350937, 0.0960234, 0.2974939, -9.806932, 0, 0, 31.14404, 1, 1
IMU2, 272220889, 0.003380438, 0.003946506, -7.0216E-05, 0.08705762, 0.06063414, -10.3178, 0, 0, 32.75, 1, 1
CURR, 272258886, 16.47678, 21.89531, 1622.608
POWR, 272258896, 4.814648, 7.33, 3
MAG, 272258928, 182, -262, 463, 16, 48, -13, 0, 0, 0, 1, 272258920
MAG2, 272258928, -158, -14, 525, -429, 451, 241, 0, 0, 0, 1, 272258922
BARO, 272261035, -0.09842473, 102311.3, 31.24, -0.3281169, 272261, 0
CTUN, 272261064, 0, 0, 0, 0.4779548, 0, -0.003422922, -0.09, 0.00, 0.00, 0, 0, 7
ATT, 272261214, 0.83, 0.83, 0.50, 0.50, 51.88, 51.88, 0.00, 0.00
NKF1, 272261224, 0.83, 0.50, 51.88, 0.04932604, -0.1198236, -0.0779765, 0, 0, 0, 0.003422922, -0.08, 0.06, -0.01
NKF2, 272261224, 1, 0.00, 0.00, 0.00, 0.00, 0.00, 316, 0, 470, 0, 0, 0, 0
NKF3, 272261224, 0.00, 0.00, 0.00, 0.05, -0.14, -0.27, 0, 0, 0, -0.61, 0.00
NKF4, 272261224, 0.00, 0.00, 0.01, 0.00, 0.00, 3.9186E-06, 0, 0, 0, 19, 485, 256, 0
NKF5, 272261224, 0, 0, 0, 0, 0.12, 0.09, 0.02, 0.09, 0.15, 9.676079E-05, 0.009870104, 0.05147717
NKF6, 272261224, 2.54, 0.59, 53.87, -0.1005788, -0.02216168, 0.2627273, 0, 0, 0, 0.2575412, 0.05, 0.10, 0.00
NKF7, 272261224, -52, 0.00, 0.00, 0.00, 0.00, 0.00, 322, 0, 466, 0, 0, 0, 0
NKF8, 272261224, 0.00, 0.00, 0.00, -0.12, -0.01, 0.00, 0, 0, 0, -0.05, 0.00
NKF9, 272261224, 0.00, 0.00, 0.00, 0.00, 0.00, 3.516024E-06, 0, 0, 0, 19, 485, 256, 0
AHR2, 272261363, 1.12, 0.29, 53.11, -0.09, 0, 0
RATE, 272261380, -0.07398857, -0.07398857, -8.973956E-05, 0.0420357, 0.0420357, -3.032674E-05, -0.02183386, -0.02183386, -9.094676E-08, -2783.919, 0.5125046, 0
MOTB, 272261401, 1, 1, 0, 1
RCIN, 272261411, 1494, 1494, 982, 1498, 1136, 1494, 982, 2006, 982, 1494, 1494, 1055, 1494, 1494
RCOU, 272261480, 982, 982, 982, 982, 0, 0, 0, 0, 1000, 0, 0, 0, 0, 0
VIBE, 272261500, 0.03247961, 0.03340291, 0.0371279, 0, 0, 0
CTRL, 272261519, 2.02689E-05, 2.954476E-05, 1.667662E-05, 2.446605E-05, 4.608867E-06
IMU, 272261615, -0.002689256, 0.001948235, -0.0006425823, 0.1163264, 0.2793663, -9.795071, 0, 0, 31.14404, 1, 1
IMU2, 272261615, 0.00317689, 0.001414543, 0.009376789, 0.06945527, 0.02599974, -10.34155, 0, 0, 32.625, 1, 1
IMU, 272300837, -0.002761781, 0.001876325, -0.0001605557, 0.1006213, 0.2836592, -9.812368, 0, 0, 31.23269, 1, 1
IMU2, 272300837, 0.001553255, 0.004142432, 0.00308815, 0.09249373, 0.1342879, -10.14759, 0, 0, 32.875, 1, 1
IMU, 272340723, -0.002696179, 0.002355725, -0.0004442536, 0.1201719, 0.3037304, -9.771498, 0, 0, 31.23269, 1, 1
IMU2, 272340723, -0.002424704, -0.002152604, -0.0004387517, 0.08780431, 0.06243759, -10.25062, 0, 0, 32.625, 1, 1
CURR, 272358996, 16.43473, 21.92624, 1623.218
POWR, 272359006, 4.806592, 7.328001, 3
MAG, 272359055, 186, -262, 462, 16, 48, -13, 0, 0, 0, 1, 272359047
MAG2, 272359055, -157, -15, 525, -429, 451, 241, 0, 0, 0, 1, 272359049
BARO, 272360820, -0.2569979, 102313.1, 31.24, -0.2337937, 272360, 0
CTUN, 272360842, 0, 0, 0, 0.4779548, 0, -0.008345595, -0.25, 0.00, 0.00, 0, 0, 7
ATT, 272360995, 0.83, 0.83, 0.51, 0.51, 51.88, 51.88, 0.00, 0.00
NKF1, 272361006, 0.83, 0.51, 51.88, 0.05191311, -0.1255516, -0.07755456, 0, 0, 0, 0.008345595, -0.08, 0.06, -0.01
NKF2, 272361006, 1, 0.00, 0.00, 0.00, 0.00, 0.00, 316, 0, 470, 0, 0, 0, 0
NKF3, 272361006, 0.00, 0.00, 0.00, 0.06, -0.15, -0.30, 0, 0, 0, -0.46, 0.00
NKF4, 272361006, 0.00, 0.00, 0.02, 0.00, 0.00, 3.271633E-06, 0, 0, 0, 19, 485, 256, 0
NKF5, 272361006, 0, 0, 0, 0, 0.11, 0.09, 0.01, 0.09, 0.15, 9.927765E-05, 0.009623706, 0.0526647
NKF6, 272361006, 2.54, 0.58, 53.88, -0.1064533, -0.02239335, 0.2723069, 0, 0, 0, 0.2867104, 0.05, 0.10, 0.00
NKF7, 272361006, -52, 0.00, 0.00, 0.00, 0.00, 0.00, 322, 0, 466, 0, 0, 0, 0
NKF8, 272361006, 0.00, 0.00, 0.00, -0.13, -0.01, 0.00, 0, 0, 0, 0.10, 0.00
NKF9, 272361006, 0.00, 0.00, 0.00, 0.00, 0.00, 2.876988E-06, 0, 0, 0, 19, 485, 256, 0
AHR2, 272361237, 1.11, 0.29, 53.11, -0.25, 0, 0
RATE, 272361254, -0.02616573, -0.02616573, 3.387288E-06, 0.02891264, 0.02891264, 2.811475E-05, 0.007524406, 0.007524406, -1.19251E-06, -2783.919, 0.6761551, 0
MOTB, 272361274, 1, 1, 0, 1
RCIN, 272361285, 1494, 1494, 982, 1498, 1136, 1494, 982, 2006, 982, 1494, 1494, 1055, 1494, 1494
RCOU, 272361400, 982, 982, 982, 982, 0, 0, 0, 0, 1000, 0, 0, 0, 0, 0
VIBE, 272361448, 0.02990098, 0.03303221, 0.04324389, 0, 0, 0
CTRL, 272361467, 1.926389E-05, 2.778773E-05, 1.583362E-05, 2.336278E-05, 4.317302E-06
GPS, 272378750, 1, 0, 0, 0, 99.99, 0, 0, -17.00, 0, 0, 0, 1
GPA, 272378750, 99.99, 393.28, 62.08, 142.98, 1, 272378
IMU, 272381172, -0.00200198, 0.001931086, -0.000279286, 0.1000522, 0.3113249, -9.800116, 0, 0, 31.14404, 1, 1
IMU2, 272381172, 0.001961872, 0.00170454, -0.0005887292, 0.1198798, 0.09993853, -10.30232, 0, 0, 32.625, 1, 1
IMU, 272420823, -0.002366142, 0.002256657, -0.001083485, 0.09811652, 0.2968408, -9.815163, 0, 0, 31.14404, 1, 1
IMU2, 272420823, 0.0009126867, 4.054214E-05, 0.005369182, 0.1615074, 0.08401135, -10.29275, 0, 0, 32.75, 1, 1
CURR, 272459075, 16.46955, 21.77283, 1623.823
POWR, 272459085, 4.796924, 7.33, 3
MAG, 272459126, 185, -265, 462, 16, 48, -13, 0, 0, 0, 1, 272459118
MAG2, 272459126, -157, -14, 525, -429, 451, 241, 0, 0, 0, 1, 272459120
BARO, 272460829, -0.02187216, 102310.4, 31.24, 0.1452448, 272460, 0
CTUN, 272460851, 0, 0, 0, 0.4779548, 0, -0.01163834, -0.02, 0.00, 0.00, 0, 0, 7
ATT, 272461104, 0.82, 0.82, 0.51, 0.51, 51.88, 51.88, 0.00, 0.00
NKF1, 272461114, 0.82, 0.51, 51.88, 0.05414025, -0.1313316, -0.07753079, 0, 0, 0, 0.01163834, -0.08, 0.06, -0.01
NKF2, 272461114, 1, 0.00, 0.00, 0.00, 0.00, 0.00, 316, 0, 470, 0, 0, 0, 0
NKF3, 272461114, 0.00, 0.00, 0.00, 0.06, -0.16, -0.12, 0, 0, 0, -0.51, 0.00
NKF4, 272461114, 0.00, 0.00, 0.00, 0.00, 0.00, 2.94955E-06, 0, 0, 0, 19, 485, 256, 0
NKF5, 272461114, 0, 0, 0, 0, 0.11, 0.09, 0.01, 0.09, 0.15, 0.0001029119, 0.00915831, 0.0584679
NKF6, 272461114, 2.54, 0.58, 53.89, -0.1116687, -0.0226752, 0.2790141, 0, 0, 0, 0.3165902, 0.05, 0.10, 0.00
NKF7, 272461114, -52, 0.00, 0.00, 0.00, 0.00, 0.00, 322, 0, 466, 0, 0, 0, 0
NKF8, 272461114, 0.00, 0.00, 0.00, -0.14, -0.01, 0.19, 0, 0, 0, 0.03, 0.00
NKF9, 272461114, 0.00, 0.00, 0.01, 0.00, 0.00, 2.511243E-06, 0, 0, 0, 19, 485, 256, 0
AHR2, 272461284, 1.11, 0.28, 53.11, -0.02, 0, 0
RATE, 272461380, -0.07134271, -0.07134271, 1.725904E-05, 0.009472378, 0.009472378, 9.799621E-07, 0.03790406, 0.03790406, -1.154003E-05, -2783.919, 2.252388, 0
MOTB, 272461400, 1, 1, 0, 1
RCIN, 272461411, 1494, 1494, 982, 1478, 1136, 1494, 982, 2006, 982, 1494, 1494, 1055, 1494, 1494
RCOU, 272461480, 982, 982, 982, 982, 0, 0, 0, 0, 1000, 0, 0, 0, 0, 0
VIBE, 272461500, 0.02781875, 0.0334113, 0.04382957, 0, 0, 0
CTRL, 272461519, 1.680653E-05, 2.441216E-05, 1.548701E-05, 2.280908E-05, 5.282972E-06
IMU, 272461548, -0.00264265, 0.001379525, 0.0003999057, 0.09521481, 0.2952733, -9.812243, 0, 0, 31.14404, 1, 1
IMU2, 272461548, 0.002617875, 0.006211832, 0.002893646, 0.0925369, 0.1344732, -10.27419, 0, 0, 32.625, 1, 1
IMU, 272501059, -0.002129677, 0.001430396, -0.0002636979, 0.09696954, 0.2995781, -9.791433, 0, 0, 31.18837, 1, 1
IMU2, 272501059, 0.002178737, -0.005267259, 0.001478689, 0.09285415, 0.0914717, -10.39954, 0, 0, 32.625, 1, 1
IMU, 272541048, -0.002162198, 0.00160137, -0.0007287612, 0.08708905, 0.2986839, -9.793936, 0, 0, 31.18837, 1, 1
IMU2, 272541048, -0.001962872, -0.0006460663, -0.00955287, 0.04505415, 0.04874329, -10.34427, 0, 0, 32.75, 1, 1
CURR, 272559215, 16.47226, 22.14347, 1624.439
POWR, 272559225, 4.74375, 7.333, 3
MAG, 272559257, 185, -261, 455, 16, 48, -13, 0, 0, 0, 1, 272559249
MAG2, 272559257, -158, -15, 525, -429, 451, 241, 0, 0, 0, 1, 272559251
BARO, 272560732, -0.2569979, 102313.1, 31.25, 0.2774876, 272560, 0
CTUN, 272560795, 0, 0, 0, 0.4779548, 0, -0.01257842, -0.25, 0.00, 0.00, 0, 0, 7
ATT, 272561233, 0.82, 0.82, 0.51, 0.51, 51.88, 51.88, 0.00, 0.00
NKF1, 272561243, 0.82, 0.51, 51.88, 0.05594863, -0.1378051, -0.07666198, 0, 0, 0, 0.01257842, -0.08, 0.06, -0.01
NKF2, 272561243, 1, 0.00, 0.00, 0.00, 0.00, 0.00, 316, 0, 470, 0, 0, 0, 0
NKF3, 272561243, 0.00, 0.00, 0.00, 0.07, -0.17, -0.28, 0, 0, 0, 0.05, 0.00
NKF4, 272561243, 0.00, 0.00, 0.01, 0.00, 0.00, 2.858817E-06, 0, 0, 0, 19, 485, 256, 0
NKF5, 272561243, 0, 0, 0, 0, 0.11, 0.09, 0.01, 0.09, 0.15, 8.52818E-05, 0.008833021, 0.05622902
NKF6, 272561243, 2.54, 0.56, 53.87, -0.1164417, -0.02611484, 0.278957, 0, 0, 0, 0.3445528, 0.05, 0.10, 0.00
NKF7, 272561243, -52, 0.00, 0.00, 0.00, 0.00, 0.00, 322, 0, 466, 0, 0, 0, 0
NKF8, 272561243, 0.00, 0.00, 0.00, -0.15, -0.01, 0.05, 0, 0, 0, 0.61, 0.00
NKF9, 272561243, 0.00, 0.00, 0.00, 0.00, 0.00, 2.359216E-06, 0, 0, 0, 19, 485, 256, 0
AHR2, 272561426, 1.11, 0.27, 53.10, -0.25, 0, 0
RATE, 272561443, -0.08048671, -0.08048671, -2.702432E-05, 0.03338694, 0.03338694, 3.697387E-05, -0.02932725, -0.02932725, 5.478795E-07, -2783.919, -0.2116203, 0
MOTB, 272561463, 1, 1, 0, 1
RCIN, 272561474, 1494, 1494, 985, 1497, 1136, 1494, 982, 2006, 982, 1494, 1494, 1055, 1494, 1494
RCOU, 272561543, 982, 982, 982, 982, 0, 0, 0, 0, 1000, 0, 0, 0, 0, 0
VIBE, 272561563, 0.02673533, 0.02902022, 0.03991809, 0, 0, 0
CTRL, 272561582, 1.710068E-05, 2.489843E-05, 1.560601E-05, 2.308531E-05, 5.0024E-06
GPS, 272578809, 1, 0, 0, 0, 99.99, 0, 0, -17.00, 0, 0, 0, 1
GPA, 272578809, 99.99, 393.28, 62.40, 143.05, 1, 272578
IMU, 272581032, -0.002351072, 0.002496297, -0.0004085359, 0.100668, 0.2991326, -9.820774, 0, 0, 31.18837, 1, 1
IMU2, 272581032, 0.003255022, -7.453215E-05, 0.001186755, 0.1716015, 0.09847016, -10.26985, 0, 0, 32.625, 1, 1
IMU, 272621064, -0.002725605, 0.001894067, -0.0005426923, 0.1080289, 0.2799791, -9.806854, 0, 0, 31.18837, 1, 1
IMU2, 272621064, 0.003686976, -0.0005206942, 0.00116111, 0.07141787, 0.03284338, -10.27318, 0, 0, 32.625, 1, 1
CURR, 272658971, 16.47379, 21.86098, 1625.045
POWR, 272658981, 4.69541, 7.328001, 3
MAG, 272659029, 184, -261, 464, 16, 48, -13, 0, 0, 0, 1, 272659013
MAG2, 272659029, -158, -14, 524, -429, 451, 241, 0, 0, 0, 1, 272659016
BARO, 272660781, -0.1202969, 102311.6, 31.25, 0.1766635, 272660, 0
CTUN, 272660803, 0, 0, 0, 0.4779548, 0, -0.0127758, -0.12, 0.00, 0.00, 0, 0, 7
ATT, 272660910, 0.81, 0.81, 0.52, 0.52, 51.88, 51.88, 0.00, 0.00
NKF1, 272660974, 0.81, 0.52, 51.88, 0.0588259, -0.1438719, -0.07693373, 0, 0, 0, 0.0127758, -0.08, 0.06, -0.01
NKF2, 272660974, 1, 0.00, 0.00, 0.00, 0.00, 0.00, 316, 0, 470, 0, 0, 0, 0
NKF3, 272660974, 0.00, 0.00, 0.00, 0.07, -0.19, -0.05, 0, 0, 0, -0.39, 0.00
NKF4, 272660974, 0.00, 0.00, 0.00, 0.00, 0.00, 2.938063E-06, 0, 0, 0, 19, 485, 256, 0
NKF5, 272660974, 0, 0, 0, 0, 0.12, 0.09, 0.01, 0.09, 0.15, 8.460749E-05, 0.008325838, 0.06175941
NKF6, 272660974, 2.54, 0.57, 53.88, -0.1176225, -0.02817298, 0.2857454, 0, 0, 0, 0.3723805, 0.05, 0.10, 0.00
NKF7, 272660974, -52, 0.00, 0.00, 0.00, 0.00, 0.00, 322, 0, 466, 0, 0, 0, 0
NKF8, 272660974, 0.00, 0.00, 0.00, -0.16, -0.02, 0.31, 0, 0, 0, 0.16, 0.00
NKF9, 272660974, 0.00, 0.00, 0.02, 0.00, 0.00, 2.363747E-06, 0, 0, 0, 19, 485, 256, 0
AHR2, 272661162, 1.11, 0.27, 53.10, -0.12, 0, 0
RATE, 272661179, -0.0536946, -0.0536946, -1.941081E-05, 0.05827627, 0.05827627, 2.586317E-05, -0.03294803, -0.03294803, 3.367101E-06, -2783.919, 1.673126, 0
MOTB, 272661199, 1, 1, 0, 1
RCIN, 272661210, 1494, 1494, 1009, 1497, 1136, 1494, 982, 2006, 982, 1494, 1494, 1055, 1494, 1494
RCOU, 272661279, 982, 982, 982, 982, 0, 0, 0, 0, 1000, 0, 0, 0, 0, 0
VIBE, 272661299, 0.02887997, 0.02967859, 0.04121694, 0, 0, 0
CTRL, 272661318, 1.623985E-05, 2.377012E-05, 1.578714E-05, 2.32598E-05, 4.625864E-06
IMU, 272661390, -0.002339034, 0.002235132, -0.0008375904, 0.1075721, 0.2900841, -9.806462, 0, 0, 31.18837, 1, 1
IMU2, 272661390, 0.001710129, 0.005969319, 0.003219954, 0.1347086, 0.04905453, -10.22874, 0, 0, 32.625, 1, 1
IMU, 272701097, -0.002776415, 0.001105917, -0.0004786497, 0.09736657, 0.2843198, -9.811604, 0, 0, 31.18837, 1, 1
IMU2, 272701097, 0.0005006687, 0.002765664, 0.001560296, 0.1517069, 0.1765408, -10.2345, 0, 0, 32.875, 1, 1
IMU, 272740836, -0.00189014, 0.001802382, -0.0007328653, 0.09814636, 0.2977899, -9.809916, 0, 0, 31.18837, 1, 1
IMU2, 272740836, 0.002097981, 0.001618207, 0.005699144, 0.1022985, 0.08237252, -10.3117, 0, 0, 32.625, 1, 1
CURR, 272759086, 16.48492, 21.95815, 1625.656
POWR, 272759096, 4.753418, 7.333, 3
MAG, 272759128, 186, -262, 465, 16, 48, -13, 0, 0, 0, 1, 272759121
MAG2, 272759128, -157, -14, 524, -429, 451, 241, 0, 0, 0, 1, 272759123
BARO, 272761122, -0.0820206, 102311.1, 31.25, 0.03229845, 272761, 0
CTUN, 272761144, 0, 0, 0, 0.4779548, 0, -0.01094816, -0.08, 0.00, 0.00, 0, 0, 7
ATT, 272761314, 0.80, 0.80, 0.52, 0.52, 51.87, 51.87, 0.00, 0.00
NKF1, 272761324, 0.80, 0.52, 51.87, 0.0615061, -0.1504804, -0.07659923, 0, 0, 0, 0.01094816, -0.08, 0.06, -0.01
NKF2, 272761324, 1, 0.00, 0.00, 0.00, 0.00, 0.00, 316, 0, 470, 0, 0, 0, 0
NKF3, 272761324, 0.00, 0.00, 0.00, 0.08, -0.20, -0.29, 0, 0, 0, -0.11, 0.00
NKF4, 272761324, 0.00, 0.00, 0.01, 0.00, 0.00, 3.150471E-06, 0, 0, 0, 19, 485, 256, 0
NKF5, 272761324, 0, 0, 0, 0, 0.11, 0.09, 0.01, 0.09, 0.15, 7.20526E-05, 0.007964765, 0.05665687
NKF6, 272761324, 2.54, 0.57, 53.89, -0.1205849, -0.02611321, 0.2889743, 0, 0, 0, 0.3980371, 0.05, 0.10, 0.00
NKF7, 272761324, -52, 0.00, 0.00, 0.00, 0.00, 0.00, 322, 0, 466, 0, 0, 0, 0
NKF8, 272761324, 0.00, 0.00, 0.00, -0.17, -0.02, 0.09, 0, 0, 0, 0.42, 0.00
NKF9, 272761324, 0.00, 0.00, 0.00, 0.00, 0.00, 2.485496E-06, 0, 0, 0, 19, 485, 256, 0
AHR2, 272761536, 1.11, 0.27, 53.10, -0.08, 0, 0
RATE, 272761553, -0.02301265, -0.02301265, 1.616445E-06, 0.02972923, 0.02972923, -3.084537E-05, 0.01251836, 0.01251836, -7.19333E-06, -2783.919, 0.3866196, 0
MOTB, 272761573, 1, 1, 0, 1
RCIN, 272761584, 1494, 1494, 1009, 1497, 1136, 1494, 982, 2006, 982, 1494, 1494, 1055, 1494, 1494
RCOU, 272761657, 982, 982, 982, 982, 0, 0, 0, 0, 1000, 0, 0, 0, 0, 0
VIBE, 272761677, 0.03038675, 0.03144774, 0.03802291, 0, 0, 0
CTRL, 272761696, 1.612366E-05, 2.373914E-05, 1.693479E-05, 2.473669E-05, 4.611074E-06
GPS, 272778878, 1, 0, 0, 0, 99.99, 0, 0, -17.00, 0, 0, 0, 1
GPA, 272778878, 99.99, 393.28, 62.40, 143.11, 1, 272778
IMU, 272780993, -0.001257534, 0.001943684, -0.0003212277, 0.09356221, 0.302252, -9.795081, 0, 0, 31.18837, 1, 1
IMU2, 272780993, 0.003044454, 0.001899548, 0.007281392, 0.09660064, 0.07208487, -10.33563, 0, 0, 32.875, 1, 1
IMU, 272820854, -0.003207823, 0.002229636, -0.000344221, 0.0904585, 0.2887275, -9.796527, 0, 0, 31.14404, 1, 1
IMU2, 272820854, 0.001890503, 0.004472215, -0.001643316, 0.1272923, 0.08503526, -10.22275, 0, 0, 32.75, 1, 1
CURR, 272858917, 16.44875, 22.48511, 1626.28
POWR, 272858927, 4.764697, 7.33, 3
MAG, 272858959, 187, -265, 463, 16, 48, -13, 0, 0, 0, 1, 272858952
MAG2, 272858959, -157, -14, 524, -429, 451, 241, 0, 0, 0, 1, 272858954
DU32, 272858995, 7, 16836056
BARO, 272860825, -0.3991669, 102314.8, 31.25, -0.02975133, 272860, 0
CTUN, 272860847, 0, 0, 0, 0.4779548, 0, -0.009588575, -0.39, 0.00, 0.00, 0, 0, 7
ATT, 272861094, 0.80, 0.80, 0.53, 0.53, 51.87, 51.87, 0.00, 0.00
NKF1, 272861104, 0.80, 0.53, 51.87, 0.0641913, -0.1571976, -0.07674706, 0, 0, 0, 0.009588575, -0.08, 0.06, -0.01
NKF2, 272861104, 1, 0.00, 0.00, 0.00, 0.00, 0.00, 316, 0, 470, 0, 0, 0, 0
NKF3, 272861104, 0.00, 0.00, 0.00, 0.08, -0.21, -0.15, 0, 0, 0, -0.21, 0.00
NKF4, 272861104, 0.00, 0.00, 0.00, 0.00, 0.00, 3.463545E-06, 0, 0, 0, 19, 485, 256, 0
NKF5, 272861104, 0, 0, 0, 0, 0.11, 0.09, 0.02, 0.09, 0.15, 6.477812E-05, 0.007517286, 0.0570392
NKF6, 272861104, 2.54, 0.57, 53.89, -0.1246176, -0.02578787, 0.2934048, 0, 0, 0, 0.4243579, 0.05, 0.10, 0.00
NKF7, 272861104, -52, 0.00, 0.00, 0.00, 0.00, 0.00, 322, 0, 466, 0, 0, 0, 0
NKF8, 272861104, 0.00, 0.00, 0.00, -0.18, -0.02, 0.26, 0, 0, 0, 0.26, 0.00
NKF9, 272861104, 0.00, 0.00, 0.01, 0.00, 0.00, 2.700623E-06, 0, 0, 0, 19, 485, 256, 0
AHR2, 272861289, 1.11, 0.27, 53.10, -0.39, 0, 0
RATE, 272861306, -0.05637358, -0.05637358, 2.709083E-05, 0.04606881, 0.04606881, -7.923455E-05, 0.02283575, 0.02283575, -6.551334E-06, -2783.919, 1.722145, 0
MOTB, 272861326, 1, 1, 0, 1
RCIN, 272861337, 1494, 1494, 1007, 1497, 1136, 1494, 982, 2006, 982, 1494, 1494, 1055, 1494, 1494
RCOU, 272861409, 982, 982, 982, 982, 0, 0, 0, 0, 1000, 0, 0, 0, 0, 0
VIBE, 272861429, 0.03129828, 0.03414775, 0.0418325, 0, 0, 0
CTRL, 272861448, 1.904769E-05, 2.706791E-05, 1.946891E-05, 2.842088E-05, 4.466281E-06
IMU, 272861477, -0.002386752, 0.002022899, 0.000135773, 0.1098576, 0.2893573, -9.806978, 0, 0, 31.14404, 1, 1
IMU2, 272861477, -0.0001385411, 0.002690929, -0.0002224214, 0.09306693, 0.02241882, -10.26143, 0, 0, 32.875, 1, 1
IMU, 272900936, -0.001552039, 0.002291164, -0.0007078679, 0.1072363, 0.2850083, -9.817601, 0, 0, 31.18837, 1, 1
IMU2, 272900936, 0.0002496279, 0.006627748, 0.001917319, 0.1030152, 0.08032323, -10.31018, 0, 0, 32.75, 1, 1
IMU, 272940864, -0.003037629, 0.002516947, -0.0006758922, 0.0847082, 0.3037159, -9.788145, 0, 0, 31.18837, 1, 1
IMU2, 272940864, 0.002130628, 0.003633622, 0.0005629964, 0.1380631, 0.1518046, -10.16741, 0, 0, 32.75, 1, 1
CURR, 272959000, 16.44043, 21.78991, 1626.885
POWR, 272959010, 4.811426, 7.333, 3
MAG, 272959067, 188, -269, 463, 16, 48, -13, 0, 0, 0, 1, 272959059
MAG2, 272959067, -158, -13, 524, -429, 451, 241, 0, 0, 0, 1, 272959061
BARO, 272960791, -0.3882309, 102314.7, 31.25, -0.240587, 272960, 0
CTUN, 272960813, 0, 0, 0, 0.4779548, 0, -0.007149626, -0.38, 0.00, 0.00, 0, 0, 7
ATT, 272961274, 0.79, 0.79, 0.53, 0.53, 51.87, 51.87, 0.00, 0.00
NKF1, 272961284, 0.79, 0.53, 51.87, 0.06586306, -0.1641546, -0.07652674, 0, 0, 0, 0.007149626, -0.08, 0.06, -0.01
NKF2, 272961284, 1, 0.00, 0.00, 0.00, 0.00, 0.00, 316, 0, 470, 0, 0, 0, 0
NKF3, 272961284, 0.00, 0.00, 0.00, 0.09, -0.23, -0.11, 0, 0, 0, 0.03, 0.00
NKF4, 272961284, 0.00, 0.00, 0.00, 0.00, 0.00, 3.866516E-06, 0, 0, 0, 19, 485, 256, 0
NKF5, 272961284, 0, 0, 0, 0, 0.12, 0.09, 0.02, 0.09, 0.15, 4.894223E-05, 0.007088494, 0.0577286
NKF6, 272961284, 2.54, 0.58, 53.90, -0.1303077, -0.02710056, 0.3009672, 0, 0, 0, 0.4489413, 0.05, 0.10, 0.00
NKF7, 272961284, -53, 0.00, 0.00, 0.00, 0.00, 0.00, 322, 0, 466, 0, 0, 0, 0
NKF8, 272961284, 0.00, 0.00, 0.00, -0.19, -0.02, 0.31, 0, 0, 0, 0.52, 0.00
NKF9, 272961284, 0.00, 0.00, 0.02, 0.00, 0.00, 2.991594E-06, 0, 0, 0, 19, 485, 256, 0
AHR2, 272961424, 1.10, 0.28, 53.10, -0.38, 0, 0
RATE, 272961441, -0.06574599, -0.06574599, -7.190491E-05, 0.04375156, 0.04375156, -2.105548E-05, -0.03591677, -0.03591677, 3.012188E-06, -2783.919, -0.4105568, 0
MOTB, 272961461, 1, 1, 0, 1
RCIN, 272961472, 1494, 1494, 1007, 1497, 1136, 1494, 982, 2006, 982, 1494, 1494, 1055, 1494, 1494
RCOU, 272961570, 982, 982, 982, 982, 0, 0, 0, 0, 1000, 0, 0, 0, 0, 0
VIBE, 272961590, 0.02881895, 0.03111654, 0.04011569, 0, 0, 0
CTRL, 272961609, 1.826223E-05, 2.58822E-05, 1.851867E-05, 2.724672E-05, 5.083421E-06
GPS, 272978865, 1, 0, 0, 0, 99.99, 0, 0, -17.00, 0, 0, 0, 1
GPA, 272978865, 99.99, 393.28, 62.40, 143.16, 1, 272978
IMU, 272980836, -0.001772927, 0.002213998, -0.0004283309, 0.1002057, 0.2892938, -9.804735, 0, 0, 31.18837, 1, 1
IMU2, 272980836, 0.00153176, 0.003811576, 0.002533701, 0.1501281, 0.003695596, -10.23623, 0, 0, 32.625, 1, 1
RAD, 273020921, 126, 121, 97, 69, 77, 0, 0
IMU, 273021144, -0.001598921, 0.002613604, -0.0005789992, 0.08755367, 0.2977242, -9.777969, 0, 0, 31.09972, 1, 1
IMU2, 273021144, 0.002785688, 0.007346714, -0.00333297, 0.110696, 0.1590565, -10.34934, 0, 0, 32.625, 1, 1
RAD, 273023652, 126, 121, 97, 69, 77, 0, 0
CURR, 273059093, 16.45237, 21.79861, 1627.491
POWR, 273059103, 4.764697, 7.33, 3
MAG, 273059139, 189, -263, 464, 16, 48, -13, 0, 0, 0, 1, 273059127
MAG2, 273059139, -157, -14, 525, -429, 451, 241, 0, 0, 0, 1, 273059129
BARO, 273060768, -0.3608907, 102314.4, 31.25, -0.705719, 273060, 0
CTUN, 273060790, 0, 0, 0, 0.4779548, 0, -0.00469302, -0.36, 0.00, 0.00, 0, 0, 7
ATT, 273061216, 0.79, 0.79, 0.54, 0.54, 51.87, 51.87, 0.00, 0.01
NKF1, 273061230, 0.79, 0.54, 51.87, 0.06820844, -0.1711329, -0.07581646, 0, 0, 0, 0.00469302, -0.08, 0.06, -0.01
NKF2, 273061230, 1, 0.00, 0.00, 0.00, 0.00, 0.00, 316, 0, 470, 0, 0, 0, 0
NKF3, 273061230, 0.00, 0.00, 0.00, 0.10, -0.24, -0.43, 0, 0, 0, -0.19, 0.00
NKF4, 273061230, 0.00, 0.00, 0.02, 0.00, 0.00, 4.352786E-06, 0, 0, 0, 19, 485, 256, 0
NKF5, 273061230, 0, 0, 0, 0, 0.11, 0.09, 0.02, 0.09, 0.15, 4.376208E-05, 0.006894012, 0.04666021
NKF6, 273061230, 2.55, 0.59, 53.90, -0.1334608, -0.02893464, 0.3035548, 0, 0, 0, 0.4721651, 0.05, 0.10, 0.00
NKF7, 273061230, -53, 0.00, 0.00, 0.00, 0.00, 0.00, 322, 0, 466, 0, 0, 0, 0
NKF8, 273061230, 0.00, 0.00, 0.00, -0.21, -0.03, 0.01, 0, 0, 0, 0.31, 0.00
NKF9, 273061230, 0.00, 0.00, 0.00, 0.00, 0.00, 3.345159E-06, 0, 0, 0, 19, 485, 256, 0
AHR2, 273061474, 1.10, 0.28, 53.10, -0.36, 0, 0
RATE, 273061491, -0.002619718, -0.002619718, -4.519595E-06, 0.01466397, 0.01466397, -3.471463E-05, -0.005528578, -0.005528578, -4.087764E-06, -2783.919, 0.2532959, 0
MOTB, 273061514, 1, 1, 0, 1
RCIN, 273061525, 1494, 1494, 1005, 1497, 1136, 1494, 982, 2006, 982, 1494, 1494, 1055, 1494, 1494
RCOU, 273061599, 982, 982, 982, 982, 0, 0, 0, 0, 1000, 0, 0, 0, 0, 0
VIBE, 273061619, 0.02963765, 0.03300758, 0.03692151, 0, 0, 0
CTRL, 273061638, 1.784032E-05, 2.51427E-05, 2.128436E-05, 3.117461E-05, 4.464267E-06
IMU, 273061667, -0.001446068, 0.001472594, -0.0003588354, 0.09894872, 0.294515, -9.792308, 0, 0, 31.14404, 1, 1
IMU2, 273061667, -0.002140325, 0.0004713678, -0.003080835, 0.008794161, 0.04218321, -10.17325, 0, 0, 32.75, 1, 1
IMU, 273100836, -0.002098595, 0.001910652, 0.0001089343, 0.09313148, 0.2897629, -9.776484, 0, 0, 31.09972, 1, 1
IMU2, 273100836, 0.0004525428, 0.004208925, -0.007273239, 0.1116374, 0.1387719, -10.38762, 0, 0, 32.75, 1, 1
UBX1, 273138898, 0, 75, 10, 1, 1092
IMU, 273140849, -0.001553723, 0.002509459, -0.0006582923, 0.09668796, 0.2930289, -9.787346, 0, 0, 31.18837, 1, 1
IMU2, 273140849, 0.003093358, 0.0008661603, 0.0007032584, 0.1245938, 0.06968038, -10.34523, 0, 0, 32.75, 1, 1
CURR, 273159113, 16.47497, 21.89853, 1628.1
POWR, 273159123, 4.764697, 7.335001, 3
MAG, 273159183, 188, -264, 459, 16, 48, -13, 0, 0, 0, 1, 273159176
MAG2, 273159183, -157, -14, 524, -429, 451, 241, 0, 0, 0, 1, 273159178
BARO, 273160819, -0.2843381, 102313.5, 31.25, -0.7901438, 273160, 0
CTUN, 273160840, 0, 0, 0, 0.4779548, 0, -0.005161093, -0.28, 0.00, 0.00, 0, 0, 7
ATT, 273161038, 0.79, 0.79, 0.54, 0.54, 51.87, 51.87, 0.00, 0.01
NKF1, 273161060, 0.79, 0.54, 51.87, 0.07075384, -0.177834, -0.07412589, 0, 0, 0, 0.005161093, -0.08, 0.06, -0.01
NKF2, 273161060, 1, 0.00, 0.00, 0.00, 0.00, 0.00, 316, 0, 470, 0, 0, 0, 0
NKF3, 273161060, 0.00, 0.00, 0.00, 0.10, -0.26, -0.41, 0, 0, 0, -0.38, 0.00
NKF4, 273161060, 0.00, 0.00, 0.02, 0.00, 0.00, 4.909838E-06, 0, 0, 0, 19, 485, 256, 0
NKF5, 273161060, 0, 0, 0, 0, 0.10, 0.09, 0.01, 0.09, 0.15, 4.903082E-05, 0.006832037, 0.03915598
NKF6, 273161060, 2.55, 0.60, 53.89, -0.1385958, -0.02742174, 0.3015563, 0, 0, 0, 0.4986352, 0.05, 0.10, 0.00
NKF7, 273161060, -52, 0.00, 0.00, 0.00, 0.00, 0.00, 322, 0, 466, 0, 0, 0, 0
NKF8, 273161060, 0.00, 0.00, 0.00, -0.22, -0.03, 0.05, 0, 0, 0, 0.15, 0.00
NKF9, 273161060, 0.00, 0.00, 0.00, 0.00, 0.00, 3.757137E-06, 0, 0, 0, 19, 485, 256, 0
AHR2, 273161228, 1.10, 0.28, 53.08, -0.28, 0, 0
RATE, 273161245, -0.01554616, -0.01554616, -4.333734E-05, 0.01912998, 0.01912998, -2.689531E-05, -0.01712386, -0.01712386, 1.454828E-06, -2783.919, -0.4360199, 0
MOTB, 273161265, 1, 1, 0, 1
RCIN, 273161317, 1494, 1494, 1007, 1497, 1136, 1494, 982, 2006, 982, 1494, 1494, 1055, 1494, 1494
RCOU, 273161386, 982, 982, 982, 982, 0, 0, 0, 0, 1000, 0, 0, 0, 0, 0
VIBE, 273161406, 0.02525951, 0.0309254, 0.03979919, 0, 0, 0
CTRL, 273161425, 1.841152E-05, 2.662287E-05, 2.119304E-05, 3.129919E-05, 4.618475E-06
GPS, 273179193, 1, 0, 0, 0, 99.99, 0, 0, -17.00, 0, 0, 0, 1
GPA, 273179193, 99.99, 393.28, 62.72, 143.22, 1, 273179
IMU, 273180968, -0.000993703, 0.001803719, -0.001005771, 0.09084212, 0.3000098, -9.791157, 0, 0, 31.09972, 1, 1
IMU2, 273180968, 0.004686253, 0.0060507, 0.006275112, 0.09139321, 0.07421616, -10.34336, 0, 0, 32.75, 1, 1
IMU, 273220781, -0.003203608, 0.002405084, -9.359197E-05, 0.08279024, 0.3041645, -9.793836, 0, 0, 31.27701, 1, 1
IMU2, 273220781, 0.00373703, 0.00129635, -0.003049964, 0.07321322, 0.03957697, -10.26917, 0, 0, 32.75, 1, 1
EV, 273248903, 57
CURR, 273258829, 16.47542, 22.03792, 1628.71
POWR, 273258839, 4.817871, 7.33, 3
MAG, 273258875, 184, -266, 465, 16, 48, -13, 0, 0, 0, 1, 273258867
MAG2, 273258875, -158, -14, 524, -429, 451, 241, 0, 0, 0, 1, 273258870
BARO, 273260847, -0.4374432, 102315.3, 31.25, -0.2928322, 273260, 0
CTUN, 273260869, 0, 0, 0, 0.4779548, 0, -0.007663849, -0.43, 0.00, 0.00, 0, 0, 7
ATT, 273261043, 0.78, 0.78, 0.54, 0.54, 51.87, 51.87, 0.00, 0.00
NKF1, 273261053, 0.78, 0.54, 51.87, 0.07240639, -0.1840839, -0.07295561, 0, 0, 0, 0.007663849, -0.08, 0.06, -0.01
NKF2, 273261053, 1, 0.00, 0.00, 0.00, 0.00, 0.00, 316, 0, 470, 0, 0, 0, 0
NKF3, 273261053, 0.00, 0.00, 0.00, 0.11, -0.28, -0.38, 0, 0, 0, 0.37, 0.00
NKF4, 273261053, 0.00, 0.00, 0.02, 0.00, 0.00, 5.54687E-06, 0, 0, 0, 19, 485, 256, 0
NKF5, 273261053, 0, 0, 0, 0, 0.09, 0.09, 0.01, 0.09, 0.15, 2.502023E-05, 0.006652216, 0.0345671
NKF6, 273261053, 2.56, 0.61, 53.90, -0.1439945, -0.03011787, 0.301759, 0, 0, 0, 0.5248309, 0.05, 0.10, 0.00
NKF7, 273261053, -52, 0.00, 0.00, 0.00, 0.00, 0.00, 322, 0, 466, 0, 0, 0, 0
NKF8, 273261053, 0.00, 0.00, 0.00, -0.23, -0.03, 0.11, 0, 0, 0, 0.89, 0.00
NKF9, 273261053, 0.00, 0.00, 0.00, 0.01, 0.00, 4.215517E-06, 0, 0, 0, 19, 485, 256, 0
AHR2, 273261281, 1.11, 0.28, 53.09, -0.43, 0, 0
RATE, 273261298, -0.06737567, -0.06737567, -6.299678E-07, 0.002460435, 0.002460435, -7.833778E-05, -0.02503323, -0.02503323, 4.833E-06, -2783.919, 2.146339, 0
MOTB, 273261318, 1, 1, 0, 1
RCIN, 273261333, 1494, 1494, 1007, 1497, 1136, 1494, 982, 2006, 982, 1494, 1494, 1055, 1494, 1494
RCOU, 273261403, 982, 982, 982, 982, 0, 0, 0, 0, 1000, 0, 0, 0, 0, 0
VIBE, 273261423, 0.02786648, 0.03362827, 0.04730735, 0, 0, 0
CTRL, 273261442, 1.929163E-05, 2.760537E-05, 2.074428E-05, 3.042902E-05, 5.040231E-06
IMU, 273261471, -0.002579466, 0.001262361, -0.0006998455, 0.113515, 0.3109369, -9.810486, 0, 0, 31.18837, 1, 1
IMU2, 273261471, 0.001496211, 0.004343335, 0.005191333, 0.04713019, 0.1337386, -10.37541, 0, 0, 32.625, 1, 1
IMU, 273300993, -0.001432725, 0.001755223, -0.000658902, 0.09927241, 0.2817074, -9.779816, 0, 0, 31.18837, 1, 1
IMU2, 273300993, 0.002078874, 0.002888886, -0.002274142, 0.06126985, 0.133506, -10.28738, 0, 0, 32.875, 1, 1
IMU, 273340884, -0.002261261, 0.002282563, 0.0003131271, 0.08970167, 0.2811126, -9.812955, 0, 0, 31.09972, 1, 1
IMU2, 273340884, 0.001527051, 0.005844549, -0.00270659, 0.08624597, 0.09423386, -10.18677, 0, 0, 32.625, 1, 1
CURR, 273358937, 16.45689, 22.0629, 1629.324
POWR, 273358947, 4.808203, 7.33, 3
MAG, 273358979, 186, -268, 461, 16, 48, -13, 0, 0, 0, 1, 273358971
MAG2, 273358979, -158, -15, 525, -429, 451, 241, 0, 0, 0, 1, 273358973
BARO, 273360928, -0.1968495, 102312.4, 31.25, 0.07854319, 273360, 0
CTUN, 273361004, 0, 0, 0, 0.4779548, 0, -0.01106654, -0.19, 0.00, 0.00, 0, 0, 7
ATT, 273361190, 0.78, 0.78, 0.55, 0.55, 51.87, 51.87, 0.00, 0.00
NKF1, 273361200, 0.78, 0.55, 51.87, 0.07577813, -0.1915556, -0.07168452, 0, 0, 0, 0.01106655, -0.08, 0.06, -0.01
NKF2, 273361200, 1, 0.00, 0.00, 0.00, 0.00, 0.00, 316, 0, 470, 0, 0, 0, 0
NKF3, 273361200, 0.00, 0.00, 0.00, 0.12, -0.29, -0.29, 0, 0, 0, 0.10, 0.00
NKF4, 273361200, 0.00, 0.00, 0.01, 0.00, 0.00, 6.26581E-06, 0, 0, 0, 19, 485, 256, 0
NKF5, 273361200, 0, 0, 0, 0, 0.09, 0.09, 0.00, 0.09, 0.16, 1.627669E-05, 0.006171386, 0.03357536
NKF6, 273361200, 2.56, 0.61, 53.89, -0.150281, -0.03133801, 0.3109905, 0, 0, 0, 0.5520784, 0.05, 0.10, 0.00
NKF7, 273361200, -52, 0.00, 0.00, 0.00, 0.00, 0.00, 322, 0, 466, 0, 0, 0, 0
NKF8, 273361200, 0.00, 0.00, 0.00, -0.25, -0.03, 0.21, 0, 0, 0, 0.62, 0.00
NKF9, 273361200, 0.00, 0.00, 0.01, 0.00, 0.00, 4.738436E-06, 0, 0, 0, 19, 485, 256, 0
AHR2, 273361372, 1.10, 0.28, 53.08, -0.19, 0, 0
RATE, 273361389, -0.0174008, -0.0174008, -5.954917E-05, -0.00634732, -0.00634732, -3.242696E-05, 0.01815935, 0.01815935, 6.693552E-07, -2783.919, 2.374077, 0
MOTB, 273361409, 1, 1, 0, 1
RCIN, 273361515, 1494, 1494, 1005, 1497, 1136, 1494, 982, 2006, 982, 1494, 1494, 1055, 1494, 1494
RCOU, 273361585, 982, 982, 982, 982, 0, 0, 0, 0, 1000, 0, 0, 0, 0, 0
VIBE, 273361605, 0.02805568, 0.03328351, 0.04187811, 0, 0, 0
CTRL, 273361623, 1.896678E-05, 2.714979E-05, 2.051633E-05, 2.989751E-05, 5.23165E-06
GPS, 273378722, 1, 0, 0, 0, 99.99, 0, 0, -17.00, 0, 0, 0, 1
GPA, 273378722, 99.99, 393.28, 62.72, 143.27, 1, 273378
IMU, 273381159, -0.001777721, 0.001892782, -0.0001184639, 0.1070624, 0.3042963, -9.789189, 0, 0, 31.23269, 1, 1
IMU2, 273381159, 0.001438322, -0.002291536, -0.002846861, 0.110251, 0.1239445, -10.32157, 0, 0, 32.75, 1, 1
IMU, 273420821, -0.002126398, 0.001413089, -0.000894666, 0.1118296, 0.3016012, -9.817975, 0, 0, 31.09972, 1, 1
IMU2, 273420821, 0.0008964845, 0.003077569, -0.004000758, 0.1308695, 0.1137228, -10.22818, 0, 0, 32.75, 1, 1
CURR, 273459005, 16.47678, 21.6004, 1629.924
POWR, 273459015, 4.784033, 7.33, 3
MAG, 273459063, 190, -263, 462, 16, 48, -13, 0, 0, 0, 1, 273459055
MAG2, 273459063, -157, -13, 524, -429, 451, 241, 0, 0, 0, 1, 273459058
BARO, 273460797, -0.1585732, 102312, 31.25, 0.1947989, 273460, 0
CTUN, 273460860, 0, 0, 0, 0.4779548, 0, -0.01475, -0.15, 0.00, 0.00, 0, 0, 7
ATT, 273461054, 0.77, 0.77, 0.55, 0.55, 51.87, 51.87, 0.00, 0.00
NKF1, 273461063, 0.77, 0.55, 51.87, 0.0782697, -0.1977221, -0.0713836, 0, 0, 0, 0.01475, -0.08, 0.06, -0.01
NKF2, 273461063, 1, 0.00, 0.00, 0.00, 0.00, 0.00, 316, 0, 470, 0, 0, 0, 0
NKF3, 273461063, 0.00, 0.00, 0.00, 0.12, -0.31, -0.44, 0, 0, 0, -0.63, 0.00
NKF4, 273461063, 0.00, 0.00, 0.02, 0.00, 0.00, 7.049798E-06, 0, 0, 0, 19, 485, 256, 0
NKF5, 273461063, 0, 0, 0, 0, 0.10, 0.10, 0.00, 0.09, 0.16, 3.324624E-05, 0.006208538, 0.02744799
NKF6, 273461063, 2.56, 0.62, 53.89, -0.1572461, -0.02826179, 0.3154706, 0, 0, 0, 0.5790298, 0.05, 0.10, 0.00
NKF7, 273461063, -53, 0.00, 0.00, 0.00, 0.00, 0.00, 322, 0, 466, 0, 0, 0, 0
NKF8, 273461063, 0.00, 0.00, 0.00, -0.26, -0.04, 0.08, 0, 0, 0, -0.11, 0.00
NKF9, 273461063, 0.00, 0.00, 0.00, 0.00, 0.00, 5.314999E-06, 0, 0, 0, 19, 485, 256, 0
AHR2, 273461203, 1.10, 0.29, 53.08, -0.15, 0, 0
RATE, 273461220, -0.02283171, -0.02283171, -1.310184E-05, 0.04891761, 0.04891761, 5.316981E-05, -0.06866645, -0.06866645, 6.914264E-06, -2783.919, 2.000427, 0
MOTB, 273461240, 1, 1, 0, 1
RCIN, 273461250, 1494, 1494, 1007, 1498, 1136, 1494, 982, 2006, 982, 1494, 1494, 1055, 1494, 1494
RCOU, 273461362, 982, 982, 982, 982, 0, 0, 0, 0, 1000, 0, 0, 0, 0, 0
VIBE, 273461382, 0.03151305, 0.03166556, 0.04390204, 0, 0, 0
CTRL, 273461400, 1.951498E-05, 2.840562E-05, 1.903062E-05, 2.800093E-05, 5.460706E-06
